[
    {
        "icao": "AYGA",
        "iata": "GKA",
        "airport": "Goroka",
        "city": "Goroka",
        "country": "Papua New Guinea",
        "altitude": 1610.0,
        "latitude": -6.082,
        "longitude": 145.392
    },
    {
        "icao": "AYMD",
        "iata": "MAG",
        "airport": "Madang",
        "city": "Madang",
        "country": "Papua New Guinea",
        "altitude": 7.0,
        "latitude": -5.207,
        "longitude": 145.789
    },
    {
        "icao": "AYMH",
        "iata": "HGU",
        "airport": "Mount Hagen",
        "city": "Mount Hagen",
        "country": "Papua New Guinea",
        "altitude": 1643.0,
        "latitude": -5.826,
        "longitude": 144.296
    },
    {
        "icao": "AYNZ",
        "iata": "LAE",
        "airport": "Nadzab",
        "city": "Nadzab",
        "country": "Papua New Guinea",
        "altitude": 73.0,
        "latitude": -6.57,
        "longitude": 146.726
    },
    {
        "icao": "AYPY",
        "iata": "POM",
        "airport": "Port Moresby Jacksons International",
        "city": "Port Moresby",
        "country": "Papua New Guinea",
        "altitude": 45.0,
        "latitude": -9.443,
        "longitude": 147.22
    },
    {
        "icao": "AYWK",
        "iata": "WWK",
        "airport": "Wewak International",
        "city": "Wewak",
        "country": "Papua New Guinea",
        "altitude": 6.0,
        "latitude": -3.584,
        "longitude": 143.669
    },
    {
        "icao": "BGBW",
        "iata": "UAK",
        "airport": "Narsarsuaq",
        "city": "Narssarssuaq",
        "country": "Greenland",
        "altitude": 35.0,
        "latitude": 61.161,
        "longitude": -45.427
    },
    {
        "icao": "BGCO",
        "iata": "N/A",
        "airport": "Nerlerit Inaat Constable Pynt",
        "city": "Nerlerit Inaat",
        "country": "Greenland",
        "altitude": 14.0,
        "latitude": 70.739,
        "longitude": -22.646
    },
    {
        "icao": "BGGH",
        "iata": "GOH",
        "airport": "Nuuk",
        "city": "Godthaab",
        "country": "Greenland",
        "altitude": 87.0,
        "latitude": 64.191,
        "longitude": -51.678
    },
    {
        "icao": "BGJN",
        "iata": "JAV",
        "airport": "Jacobshavn",
        "city": "Jakobshavn",
        "country": "Greenland",
        "altitude": 34.0,
        "latitude": 69.233,
        "longitude": -51.067
    },
    {
        "icao": "BGKK",
        "iata": "KUS",
        "airport": "Kulusuk",
        "city": "Kulusuk",
        "country": "Greenland",
        "altitude": 34.0,
        "latitude": 65.583,
        "longitude": -37.15
    },
    {
        "icao": "BGSF",
        "iata": "SFJ",
        "airport": "Kangerlussuaq Sondre Stromfjord",
        "city": "Sondrestrom",
        "country": "Greenland",
        "altitude": 51.0,
        "latitude": 67.017,
        "longitude": -50.689
    },
    {
        "icao": "BGTL",
        "iata": "THU",
        "airport": "Thule Air Base",
        "city": "Thule",
        "country": "Greenland",
        "altitude": 77.0,
        "latitude": 76.531,
        "longitude": -68.703
    },
    {
        "icao": "BIAR",
        "iata": "AEY",
        "airport": "Akureyri",
        "city": "Akureyri",
        "country": "Iceland",
        "altitude": 2.0,
        "latitude": 65.66,
        "longitude": -18.072
    },
    {
        "icao": "BIEG",
        "iata": "EGS",
        "airport": "Egilsstadir",
        "city": "Egilsstadir",
        "country": "Iceland",
        "altitude": 24.0,
        "latitude": 65.283,
        "longitude": -14.401
    },
    {
        "icao": "BIHN",
        "iata": "HFN",
        "airport": "Hornafjordur",
        "city": "Hofn",
        "country": "Iceland",
        "altitude": 8.0,
        "latitude": 64.296,
        "longitude": -15.227
    },
    {
        "icao": "BIHU",
        "iata": "HZK",
        "airport": "Husavik",
        "city": "Husavik",
        "country": "Iceland",
        "altitude": 14.0,
        "latitude": 65.952,
        "longitude": -17.426
    },
    {
        "icao": "BIIS",
        "iata": "IFJ",
        "airport": "Isafjordur",
        "city": "Isafjordur",
        "country": "Iceland",
        "altitude": 3.0,
        "latitude": 66.058,
        "longitude": -23.135
    },
    {
        "icao": "BIKF",
        "iata": "KEF",
        "airport": "Keflavik Nas",
        "city": "Keflavik",
        "country": "Iceland",
        "altitude": 53.0,
        "latitude": 63.985,
        "longitude": -22.606
    },
    {
        "icao": "BIKP",
        "iata": "OPA",
        "airport": "Kopasker",
        "city": "Kopasker",
        "country": "Iceland",
        "altitude": 7.0,
        "latitude": 66.314,
        "longitude": -16.461
    },
    {
        "icao": "BIPA",
        "iata": "PFJ",
        "airport": "Patreksfjordur",
        "city": "Patreksfjordur",
        "country": "Iceland",
        "altitude": 4.0,
        "latitude": 65.556,
        "longitude": -23.965
    },
    {
        "icao": "BIRK",
        "iata": "RKV",
        "airport": "Reykjavik",
        "city": "Reykjavik",
        "country": "Iceland",
        "altitude": 15.0,
        "latitude": 64.13,
        "longitude": -21.941
    },
    {
        "icao": "BISI",
        "iata": "SIJ",
        "airport": "Siglufjordhur",
        "city": "Siglufjordur",
        "country": "Iceland",
        "altitude": 4.0,
        "latitude": 66.133,
        "longitude": -18.917
    },
    {
        "icao": "BIVM",
        "iata": "VEY",
        "airport": "Vestmannaeyjar",
        "city": "Vestmannaeyjar",
        "country": "Iceland",
        "altitude": 100.0,
        "latitude": 63.424,
        "longitude": -20.279
    },
    {
        "icao": "CYAM",
        "iata": "YAM",
        "airport": "Sault Ste Marie",
        "city": "Sault Sainte Marie",
        "country": "Canada",
        "altitude": 193.0,
        "latitude": 46.485,
        "longitude": -84.509
    },
    {
        "icao": "CYAV",
        "iata": "YAV",
        "airport": "Winnipeg St Andrews",
        "city": "Winnipeg",
        "country": "Canada",
        "altitude": 232.0,
        "latitude": 50.056,
        "longitude": -97.032
    },
    {
        "icao": "CYAW",
        "iata": "YAW",
        "airport": "Shearwater",
        "city": "Halifax",
        "country": "Canada",
        "altitude": 51.0,
        "latitude": 44.64,
        "longitude": -63.499
    },
    {
        "icao": "CYAY",
        "iata": "YAY",
        "airport": "St Anthony",
        "city": "St. Anthony",
        "country": "Canada",
        "altitude": 29.0,
        "latitude": 51.392,
        "longitude": -56.084
    },
    {
        "icao": "CYAZ",
        "iata": "YAZ",
        "airport": "Tofino",
        "city": "Tofino",
        "country": "Canada",
        "altitude": 25.0,
        "latitude": 49.082,
        "longitude": -125.772
    },
    {
        "icao": "CYBB",
        "iata": "YBB",
        "airport": "Kugaaruk",
        "city": "Pelly Bay",
        "country": "Canada",
        "altitude": 18.0,
        "latitude": 68.534,
        "longitude": -89.808
    },
    {
        "icao": "CYBC",
        "iata": "YBC",
        "airport": "Baie Comeau",
        "city": "Baie Comeau",
        "country": "Canada",
        "altitude": 22.0,
        "latitude": 49.132,
        "longitude": -68.207
    },
    {
        "icao": "CYBG",
        "iata": "YBG",
        "airport": "Bagotville",
        "city": "Bagotville",
        "country": "Canada",
        "altitude": 160.0,
        "latitude": 48.331,
        "longitude": -70.996
    },
    {
        "icao": "CYBK",
        "iata": "YBK",
        "airport": "Baker Lake",
        "city": "Baker Lake",
        "country": "Canada",
        "altitude": 18.0,
        "latitude": 64.299,
        "longitude": -96.078
    },
    {
        "icao": "CYBL",
        "iata": "YBL",
        "airport": "Campbell River",
        "city": "Campbell River",
        "country": "Canada",
        "altitude": 106.0,
        "latitude": 49.951,
        "longitude": -125.271
    },
    {
        "icao": "CYBR",
        "iata": "YBR",
        "airport": "Brandon Muni",
        "city": "Brandon",
        "country": "Canada",
        "altitude": 410.0,
        "latitude": 49.91,
        "longitude": -99.952
    },
    {
        "icao": "CYCB",
        "iata": "YCB",
        "airport": "Cambridge Bay",
        "city": "Cambridge Bay",
        "country": "Canada",
        "altitude": 28.0,
        "latitude": 69.108,
        "longitude": -105.138
    },
    {
        "icao": "CYCD",
        "iata": "YCD",
        "airport": "Nanaimo",
        "city": "Nanaimo",
        "country": "Canada",
        "altitude": 29.0,
        "latitude": 49.052,
        "longitude": -123.87
    },
    {
        "icao": "CYCG",
        "iata": "YCG",
        "airport": "Castlegar",
        "city": "Castlegar",
        "country": "Canada",
        "altitude": 495.0,
        "latitude": 49.296,
        "longitude": -117.632
    },
    {
        "icao": "CYCH",
        "iata": "YCH",
        "airport": "Miramichi",
        "city": "Chatham",
        "country": "Canada",
        "altitude": 33.0,
        "latitude": 47.008,
        "longitude": -65.449
    },
    {
        "icao": "CYCL",
        "iata": "YCL",
        "airport": "Charlo",
        "city": "Charlo",
        "country": "Canada",
        "altitude": 41.0,
        "latitude": 47.991,
        "longitude": -66.331
    },
    {
        "icao": "CYCO",
        "iata": "YCO",
        "airport": "Kugluktuk",
        "city": "Coppermine",
        "country": "Canada",
        "altitude": 23.0,
        "latitude": 67.817,
        "longitude": -115.144
    },
    {
        "icao": "CYCT",
        "iata": "YCT",
        "airport": "Coronation",
        "city": "Coronation",
        "country": "Canada",
        "altitude": 791.0,
        "latitude": 52.075,
        "longitude": -111.445
    },
    {
        "icao": "CYCW",
        "iata": "YCW",
        "airport": "Chilliwack",
        "city": "Chilliwack",
        "country": "Canada",
        "altitude": 10.0,
        "latitude": 49.153,
        "longitude": -121.939
    },
    {
        "icao": "CYCY",
        "iata": "YCY",
        "airport": "Clyde River",
        "city": "Clyde River",
        "country": "Canada",
        "altitude": 27.0,
        "latitude": 70.486,
        "longitude": -68.517
    },
    {
        "icao": "CYCZ",
        "iata": "YZS",
        "airport": "Fairmont Hot Springs",
        "city": "Coral Harbour",
        "country": "Canada",
        "altitude": 811.0,
        "latitude": 50.332,
        "longitude": -115.874
    },
    {
        "icao": "CYDA",
        "iata": "YDA",
        "airport": "Dawson",
        "city": "Dawson",
        "country": "Canada",
        "altitude": 371.0,
        "latitude": 64.043,
        "longitude": -139.128
    },
    {
        "icao": "CYDB",
        "iata": "YDB",
        "airport": "Burwash",
        "city": "Burwash",
        "country": "Canada",
        "altitude": 807.0,
        "latitude": 61.371,
        "longitude": -139.041
    },
    {
        "icao": "CYDC",
        "iata": "YDC",
        "airport": "Princeton",
        "city": "Princeton",
        "country": "Canada",
        "altitude": 701.0,
        "latitude": 49.468,
        "longitude": -120.512
    },
    {
        "icao": "CYDF",
        "iata": "YDF",
        "airport": "Deer Lake",
        "city": "Deer Lake",
        "country": "Canada",
        "altitude": 22.0,
        "latitude": 49.211,
        "longitude": -57.391
    },
    {
        "icao": "CYDL",
        "iata": "YDL",
        "airport": "Dease Lake",
        "city": "Dease Lake",
        "country": "Canada",
        "altitude": 793.0,
        "latitude": 58.422,
        "longitude": -130.032
    },
    {
        "icao": "CYDN",
        "iata": "YDN",
        "airport": "Dauphin Barker",
        "city": "Dauphin",
        "country": "Canada",
        "altitude": 305.0,
        "latitude": 51.101,
        "longitude": -100.052
    },
    {
        "icao": "CYDQ",
        "iata": "YDQ",
        "airport": "Dawson Creek",
        "city": "Dawson Creek",
        "country": "Canada",
        "altitude": 655.0,
        "latitude": 55.742,
        "longitude": -120.182
    },
    {
        "icao": "CYED",
        "iata": "YED",
        "airport": "Edmonton Namao",
        "city": "Edmonton",
        "country": "Canada",
        "altitude": 0.0,
        "latitude": 53.667,
        "longitude": -113.467
    },
    {
        "icao": "CYEG",
        "iata": "YEG",
        "airport": "Edmonton International",
        "city": "Edmonton",
        "country": "Canada",
        "altitude": 724.0,
        "latitude": 53.31,
        "longitude": -113.58
    },
    {
        "icao": "CYEK",
        "iata": "YEK",
        "airport": "Arviat",
        "city": "Eskimo Point",
        "country": "Canada",
        "altitude": 10.0,
        "latitude": 61.094,
        "longitude": -94.071
    },
    {
        "icao": "CYEN",
        "iata": "YEN",
        "airport": "Estevan",
        "city": "Estevan",
        "country": "Canada",
        "altitude": 581.0,
        "latitude": 49.21,
        "longitude": -102.966
    },
    {
        "icao": "CYET",
        "iata": "YET",
        "airport": "Edson",
        "city": "Edson",
        "country": "Canada",
        "altitude": 927.0,
        "latitude": 53.579,
        "longitude": -116.465
    },
    {
        "icao": "CYEU",
        "iata": "YEU",
        "airport": "Eureka",
        "city": "Eureka",
        "country": "Canada",
        "altitude": 79.0,
        "latitude": 79.995,
        "longitude": -85.813
    },
    {
        "icao": "CYEV",
        "iata": "YEV",
        "airport": "Inuvik Mike Zubko",
        "city": "Inuvik",
        "country": "Canada",
        "altitude": 69.0,
        "latitude": 68.304,
        "longitude": -133.483
    },
    {
        "icao": "CYFB",
        "iata": "YFB",
        "airport": "Iqaluit",
        "city": "Iqaluit",
        "country": "Canada",
        "altitude": 34.0,
        "latitude": 63.756,
        "longitude": -68.556
    },
    {
        "icao": "CYFC",
        "iata": "YFC",
        "airport": "Fredericton",
        "city": "Fredericton",
        "country": "Canada",
        "altitude": 21.0,
        "latitude": 45.869,
        "longitude": -66.532
    },
    {
        "icao": "CYFE",
        "iata": "N/A",
        "airport": "Forestville",
        "city": "Forestville",
        "country": "Canada",
        "altitude": 9.0,
        "latitude": 48.746,
        "longitude": -69.097
    },
    {
        "icao": "CYFO",
        "iata": "YFO",
        "airport": "Flin Flon",
        "city": "Flin Flon",
        "country": "Canada",
        "altitude": 304.0,
        "latitude": 54.678,
        "longitude": -101.682
    },
    {
        "icao": "CYFR",
        "iata": "YFR",
        "airport": "Fort Resolution",
        "city": "Fort Resolution",
        "country": "Canada",
        "altitude": 161.0,
        "latitude": 61.181,
        "longitude": -113.69
    },
    {
        "icao": "CYFS",
        "iata": "YFS",
        "airport": "Fort Simpson",
        "city": "Fort Simpson",
        "country": "Canada",
        "altitude": 170.0,
        "latitude": 61.76,
        "longitude": -121.237
    },
    {
        "icao": "CYGK",
        "iata": "YGK",
        "airport": "Kingston",
        "city": "Kingston",
        "country": "Canada",
        "altitude": 93.0,
        "latitude": 44.225,
        "longitude": -76.597
    },
    {
        "icao": "CYGL",
        "iata": "YGL",
        "airport": "La Grande Riviere",
        "city": "La Grande Riviere",
        "country": "Canada",
        "altitude": 195.0,
        "latitude": 53.625,
        "longitude": -77.704
    },
    {
        "icao": "CYGP",
        "iata": "YGP",
        "airport": "Gaspe",
        "city": "Gaspe",
        "country": "Canada",
        "altitude": 33.0,
        "latitude": 48.775,
        "longitude": -64.479
    },
    {
        "icao": "CYGQ",
        "iata": "YGQ",
        "airport": "Geraldton Greenstone Regional",
        "city": "Geraldton",
        "country": "Canada",
        "altitude": 349.0,
        "latitude": 49.778,
        "longitude": -86.939
    },
    {
        "icao": "CYGR",
        "iata": "YGR",
        "airport": "Iles De La Madeleine",
        "city": "Iles De La Madeleine",
        "country": "Canada",
        "altitude": 11.0,
        "latitude": 47.425,
        "longitude": -61.778
    },
    {
        "icao": "CYGW",
        "iata": "YGW",
        "airport": "Kuujjuarapik",
        "city": "Kuujjuararapik",
        "country": "Canada",
        "altitude": 20.0,
        "latitude": 55.283,
        "longitude": -77.767
    },
    {
        "icao": "CYGX",
        "iata": "YGX",
        "airport": "Gillam",
        "city": "Gillam",
        "country": "Canada",
        "altitude": 144.0,
        "latitude": 56.35,
        "longitude": -94.7
    },
    {
        "icao": "CYHB",
        "iata": "YHB",
        "airport": "Hudson Bay",
        "city": "Hudson Bay",
        "country": "Canada",
        "altitude": 359.0,
        "latitude": 52.817,
        "longitude": -102.311
    },
    {
        "icao": "CYHD",
        "iata": "YHD",
        "airport": "Dryden Rgnl",
        "city": "Dryden",
        "country": "Canada",
        "altitude": 413.0,
        "latitude": 49.832,
        "longitude": -92.744
    },
    {
        "icao": "CYHI",
        "iata": "YHI",
        "airport": "Holman",
        "city": "Holman Island",
        "country": "Canada",
        "altitude": 36.0,
        "latitude": 70.763,
        "longitude": -117.806
    },
    {
        "icao": "CYHK",
        "iata": "YHK",
        "airport": "Gjoa Haven",
        "city": "Gjoa Haven",
        "country": "Canada",
        "altitude": 47.0,
        "latitude": 68.636,
        "longitude": -95.85
    },
    {
        "icao": "CYHM",
        "iata": "YHM",
        "airport": "Hamilton",
        "city": "Hamilton",
        "country": "Canada",
        "altitude": 238.0,
        "latitude": 43.173,
        "longitude": -79.935
    },
    {
        "icao": "CYHU",
        "iata": "YHU",
        "airport": "St Hubert",
        "city": "Montreal",
        "country": "Canada",
        "altitude": 28.0,
        "latitude": 45.517,
        "longitude": -73.417
    },
    {
        "icao": "CYHY",
        "iata": "YHY",
        "airport": "Hay River",
        "city": "Hay River",
        "country": "Canada",
        "altitude": 166.0,
        "latitude": 60.84,
        "longitude": -115.783
    },
    {
        "icao": "CYHZ",
        "iata": "YHZ",
        "airport": "Halifax International",
        "city": "Halifax",
        "country": "Canada",
        "altitude": 146.0,
        "latitude": 44.881,
        "longitude": -63.509
    },
    {
        "icao": "CYIB",
        "iata": "YIB",
        "airport": "Atikokan Muni",
        "city": "Atikokan",
        "country": "Canada",
        "altitude": 430.0,
        "latitude": 48.774,
        "longitude": -91.639
    },
    {
        "icao": "CYIO",
        "iata": "YIO",
        "airport": "Pond Inlet",
        "city": "Pond Inlet",
        "country": "Canada",
        "altitude": 56.0,
        "latitude": 72.683,
        "longitude": -77.967
    },
    {
        "icao": "CYJN",
        "iata": "YJN",
        "airport": "St Jean",
        "city": "St. Jean",
        "country": "Canada",
        "altitude": 42.0,
        "latitude": 45.294,
        "longitude": -73.281
    },
    {
        "icao": "CYJT",
        "iata": "YJT",
        "airport": "Stephenville",
        "city": "Stephenville",
        "country": "Canada",
        "altitude": 26.0,
        "latitude": 48.544,
        "longitude": -58.55
    },
    {
        "icao": "CYKA",
        "iata": "YKA",
        "airport": "Kamloops",
        "city": "Kamloops",
        "country": "Canada",
        "altitude": 346.0,
        "latitude": 50.702,
        "longitude": -120.442
    },
    {
        "icao": "CYKF",
        "iata": "YKF",
        "airport": "Waterloo Rgnl",
        "city": "Waterloo",
        "country": "Canada",
        "altitude": 317.0,
        "latitude": 43.459,
        "longitude": -80.384
    },
    {
        "icao": "CYKL",
        "iata": "YKL",
        "airport": "Schefferville",
        "city": "Schefferville",
        "country": "Canada",
        "altitude": 521.0,
        "latitude": 54.805,
        "longitude": -66.805
    },
    {
        "icao": "CYKY",
        "iata": "YKY",
        "airport": "Kindersley",
        "city": "Kindersley",
        "country": "Canada",
        "altitude": 695.0,
        "latitude": 51.517,
        "longitude": -109.181
    },
    {
        "icao": "CYKZ",
        "iata": "YKZ",
        "airport": "Buttonville Muni",
        "city": "Toronto",
        "country": "Canada",
        "altitude": 199.0,
        "latitude": 43.862,
        "longitude": -79.37
    },
    {
        "icao": "CYLD",
        "iata": "YLD",
        "airport": "Chapleau",
        "city": "Chapleau",
        "country": "Canada",
        "altitude": 447.0,
        "latitude": 47.82,
        "longitude": -83.346
    },
    {
        "icao": "CYLJ",
        "iata": "YLJ",
        "airport": "Meadow Lake",
        "city": "Meadow Lake",
        "country": "Canada",
        "altitude": 481.0,
        "latitude": 54.125,
        "longitude": -108.523
    },
    {
        "icao": "CYLL",
        "iata": "YLL",
        "airport": "Lloydminster",
        "city": "Lloydminster",
        "country": "Canada",
        "altitude": 669.0,
        "latitude": 53.309,
        "longitude": -110.072
    },
    {
        "icao": "CYLT",
        "iata": "YLT",
        "airport": "Alert",
        "city": "Alert",
        "country": "Canada",
        "altitude": 31.0,
        "latitude": 82.518,
        "longitude": -62.281
    },
    {
        "icao": "CYLW",
        "iata": "YLW",
        "airport": "Kelowna",
        "city": "Kelowna",
        "country": "Canada",
        "altitude": 430.0,
        "latitude": 49.956,
        "longitude": -119.378
    },
    {
        "icao": "CYMA",
        "iata": "YMA",
        "airport": "Mayo",
        "city": "Mayo",
        "country": "Canada",
        "altitude": 504.0,
        "latitude": 63.617,
        "longitude": -135.867
    },
    {
        "icao": "CYMJ",
        "iata": "YMJ",
        "airport": "Moose Jaw",
        "city": "Moose Jaw",
        "country": "Canada",
        "altitude": 577.0,
        "latitude": 50.33,
        "longitude": -105.559
    },
    {
        "icao": "CYMM",
        "iata": "YMM",
        "airport": "Fort Mcmurray",
        "city": "Fort Mcmurray",
        "country": "Canada",
        "altitude": 370.0,
        "latitude": 56.653,
        "longitude": -111.222
    },
    {
        "icao": "CYMO",
        "iata": "YMO",
        "airport": "Moosonee",
        "city": "Moosonee",
        "country": "Canada",
        "altitude": 10.0,
        "latitude": 51.291,
        "longitude": -80.608
    },
    {
        "icao": "CYMW",
        "iata": "YMW",
        "airport": "Maniwaki",
        "city": "Maniwaki",
        "country": "Canada",
        "altitude": 201.0,
        "latitude": 46.274,
        "longitude": -75.99
    },
    {
        "icao": "CYMX",
        "iata": "YMX",
        "airport": "Montreal International Mirabel",
        "city": "Montreal",
        "country": "Canada",
        "altitude": 83.0,
        "latitude": 45.68,
        "longitude": -74.039
    },
    {
        "icao": "CYNA",
        "iata": "YNA",
        "airport": "Natashquan",
        "city": "Natashquan",
        "country": "Canada",
        "altitude": 11.0,
        "latitude": 50.19,
        "longitude": -61.789
    },
    {
        "icao": "CYND",
        "iata": "YND",
        "airport": "Gatineau",
        "city": "Gatineau",
        "country": "Canada",
        "altitude": 65.0,
        "latitude": 45.521,
        "longitude": -75.564
    },
    {
        "icao": "CYNM",
        "iata": "YNM",
        "airport": "Matagami",
        "city": "Matagami",
        "country": "Canada",
        "altitude": 280.0,
        "latitude": 49.762,
        "longitude": -77.803
    },
    {
        "icao": "CYOC",
        "iata": "YOC",
        "airport": "Old Crow",
        "city": "Old Crow",
        "country": "Canada",
        "altitude": 252.0,
        "latitude": 67.571,
        "longitude": -139.839
    },
    {
        "icao": "CYOD",
        "iata": "YOD",
        "airport": "Cold Lake",
        "city": "Cold Lake",
        "country": "Canada",
        "altitude": 542.0,
        "latitude": 54.405,
        "longitude": -110.279
    },
    {
        "icao": "CYOJ",
        "iata": "YOJ",
        "airport": "High Level",
        "city": "High Level",
        "country": "Canada",
        "altitude": 339.0,
        "latitude": 58.621,
        "longitude": -117.165
    },
    {
        "icao": "CYOW",
        "iata": "YOW",
        "airport": "Ottawa Macdonald Cartier International",
        "city": "Ottawa",
        "country": "Canada",
        "altitude": 114.0,
        "latitude": 45.323,
        "longitude": -75.669
    },
    {
        "icao": "CYPA",
        "iata": "YPA",
        "airport": "Prince Albert Glass Field",
        "city": "Prince Albert",
        "country": "Canada",
        "altitude": 429.0,
        "latitude": 53.214,
        "longitude": -105.673
    },
    {
        "icao": "CYPE",
        "iata": "YPE",
        "airport": "Peace River",
        "city": "Peace River",
        "country": "Canada",
        "altitude": 571.0,
        "latitude": 56.227,
        "longitude": -117.447
    },
    {
        "icao": "CYPG",
        "iata": "YPG",
        "airport": "Southport",
        "city": "Portage-La-Prairie",
        "country": "Canada",
        "altitude": 270.0,
        "latitude": 49.903,
        "longitude": -98.275
    },
    {
        "icao": "CYPK",
        "iata": "N/A",
        "airport": "Pitt Meadows",
        "city": "Pitt Meadows",
        "country": "Canada",
        "altitude": 4.0,
        "latitude": 49.216,
        "longitude": -122.71
    },
    {
        "icao": "CYPL",
        "iata": "YPL",
        "airport": "Pickle Lake",
        "city": "Pickle Lake",
        "country": "Canada",
        "altitude": 387.0,
        "latitude": 51.446,
        "longitude": -90.214
    },
    {
        "icao": "CYPN",
        "iata": "YPN",
        "airport": "Port Menier",
        "city": "Port Menier",
        "country": "Canada",
        "altitude": 51.0,
        "latitude": 49.836,
        "longitude": -64.289
    },
    {
        "icao": "CYPQ",
        "iata": "YPQ",
        "airport": "Peterborough",
        "city": "Peterborough",
        "country": "Canada",
        "altitude": 192.0,
        "latitude": 44.23,
        "longitude": -78.363
    },
    {
        "icao": "CYPR",
        "iata": "YPR",
        "airport": "Prince Rupert",
        "city": "Prince Pupert",
        "country": "Canada",
        "altitude": 36.0,
        "latitude": 54.286,
        "longitude": -130.445
    },
    {
        "icao": "CYPY",
        "iata": "YPY",
        "airport": "Fort Chipewyan",
        "city": "Fort Chipewyan",
        "country": "Canada",
        "altitude": 232.0,
        "latitude": 58.767,
        "longitude": -111.117
    },
    {
        "icao": "CYQA",
        "iata": "YQA",
        "airport": "Muskoka",
        "city": "Muskoka",
        "country": "Canada",
        "altitude": 282.0,
        "latitude": 44.975,
        "longitude": -79.303
    },
    {
        "icao": "CYQB",
        "iata": "YQB",
        "airport": "Quebec Jean Lesage International",
        "city": "Quebec",
        "country": "Canada",
        "altitude": 75.0,
        "latitude": 46.788,
        "longitude": -71.398
    },
    {
        "icao": "CYQF",
        "iata": "YQF",
        "airport": "Red Deer Regional",
        "city": "Red Deer Industrial",
        "country": "Canada",
        "altitude": 905.0,
        "latitude": 52.179,
        "longitude": -113.893
    },
    {
        "icao": "CYQG",
        "iata": "YQG",
        "airport": "Windsor",
        "city": "Windsor",
        "country": "Canada",
        "altitude": 190.0,
        "latitude": 42.276,
        "longitude": -82.956
    },
    {
        "icao": "CYQH",
        "iata": "YQH",
        "airport": "Watson Lake",
        "city": "Watson Lake",
        "country": "Canada",
        "altitude": 688.0,
        "latitude": 60.118,
        "longitude": -128.822
    },
    {
        "icao": "CYQK",
        "iata": "YQK",
        "airport": "Kenora",
        "city": "Kenora",
        "country": "Canada",
        "altitude": 406.0,
        "latitude": 49.788,
        "longitude": -94.363
    },
    {
        "icao": "CYQL",
        "iata": "YQL",
        "airport": "Lethbridge",
        "city": "Lethbridge",
        "country": "Canada",
        "altitude": 929.0,
        "latitude": 49.63,
        "longitude": -112.8
    },
    {
        "icao": "CYQM",
        "iata": "YQM",
        "airport": "Greater Moncton International",
        "city": "Moncton",
        "country": "Canada",
        "altitude": 71.0,
        "latitude": 46.112,
        "longitude": -64.679
    },
    {
        "icao": "CYQN",
        "iata": "N/A",
        "airport": "Nakina",
        "city": "Nakina",
        "country": "Canada",
        "altitude": 323.0,
        "latitude": 50.183,
        "longitude": -86.696
    },
    {
        "icao": "CYQQ",
        "iata": "YQQ",
        "airport": "Comox",
        "city": "Comox",
        "country": "Canada",
        "altitude": 26.0,
        "latitude": 49.711,
        "longitude": -124.887
    },
    {
        "icao": "CYQR",
        "iata": "YQR",
        "airport": "Regina International",
        "city": "Regina",
        "country": "Canada",
        "altitude": 578.0,
        "latitude": 50.432,
        "longitude": -104.666
    },
    {
        "icao": "CYQT",
        "iata": "YQT",
        "airport": "Thunder Bay",
        "city": "Thunder Bay",
        "country": "Canada",
        "altitude": 200.0,
        "latitude": 48.372,
        "longitude": -89.324
    },
    {
        "icao": "CYQU",
        "iata": "YQU",
        "airport": "Grande Prairie",
        "city": "Grande Prairie",
        "country": "Canada",
        "altitude": 670.0,
        "latitude": 55.18,
        "longitude": -118.885
    },
    {
        "icao": "CYQV",
        "iata": "YQV",
        "airport": "Yorkton Muni",
        "city": "Yorkton",
        "country": "Canada",
        "altitude": 499.0,
        "latitude": 51.265,
        "longitude": -102.462
    },
    {
        "icao": "CYQW",
        "iata": "YQW",
        "airport": "North Battleford",
        "city": "North Battleford",
        "country": "Canada",
        "altitude": 549.0,
        "latitude": 52.769,
        "longitude": -108.244
    },
    {
        "icao": "CYQX",
        "iata": "YQX",
        "airport": "Gander International",
        "city": "Gander",
        "country": "Canada",
        "altitude": 152.0,
        "latitude": 48.937,
        "longitude": -54.568
    },
    {
        "icao": "CYQZ",
        "iata": "YQZ",
        "airport": "Quesnel",
        "city": "Quesnel",
        "country": "Canada",
        "altitude": 546.0,
        "latitude": 53.026,
        "longitude": -122.51
    },
    {
        "icao": "CYRB",
        "iata": "YRB",
        "airport": "Resolute Bay",
        "city": "Resolute",
        "country": "Canada",
        "altitude": 66.0,
        "latitude": 74.717,
        "longitude": -94.969
    },
    {
        "icao": "CYRI",
        "iata": "YRI",
        "airport": "Riviere Du Loup",
        "city": "Riviere Du Loup",
        "country": "Canada",
        "altitude": 131.0,
        "latitude": 47.764,
        "longitude": -69.585
    },
    {
        "icao": "CYRJ",
        "iata": "YRJ",
        "airport": "Roberval",
        "city": "Roberval",
        "country": "Canada",
        "altitude": 179.0,
        "latitude": 48.52,
        "longitude": -72.266
    },
    {
        "icao": "CYRM",
        "iata": "YRM",
        "airport": "Rocky Mountain House",
        "city": "Rocky Mountain House",
        "country": "Canada",
        "altitude": 989.0,
        "latitude": 52.43,
        "longitude": -114.904
    },
    {
        "icao": "CYRT",
        "iata": "YRT",
        "airport": "Rankin Inlet",
        "city": "Rankin Inlet",
        "country": "Canada",
        "altitude": 29.0,
        "latitude": 62.811,
        "longitude": -92.116
    },
    {
        "icao": "CYSB",
        "iata": "YSB",
        "airport": "Sudbury",
        "city": "Sudbury",
        "country": "Canada",
        "altitude": 348.0,
        "latitude": 46.625,
        "longitude": -80.799
    },
    {
        "icao": "CYSC",
        "iata": "YSC",
        "airport": "Sherbrooke",
        "city": "Sherbrooke",
        "country": "Canada",
        "altitude": 242.0,
        "latitude": 45.438,
        "longitude": -71.691
    },
    {
        "icao": "CYSJ",
        "iata": "YSJ",
        "airport": "Saint John",
        "city": "St. John",
        "country": "Canada",
        "altitude": 109.0,
        "latitude": 45.316,
        "longitude": -65.89
    },
    {
        "icao": "CYSM",
        "iata": "YSM",
        "airport": "Fort Smith",
        "city": "Fort Smith",
        "country": "Canada",
        "altitude": 206.0,
        "latitude": 60.022,
        "longitude": -111.96
    },
    {
        "icao": "CYSR",
        "iata": "YSR",
        "airport": "Nanisivik",
        "city": "Nanisivik",
        "country": "Canada",
        "altitude": 642.0,
        "latitude": 72.982,
        "longitude": -84.614
    },
    {
        "icao": "CYSU",
        "iata": "YSU",
        "airport": "Summerside",
        "city": "Summerside",
        "country": "Canada",
        "altitude": 18.0,
        "latitude": 46.443,
        "longitude": -63.831
    },
    {
        "icao": "CYSY",
        "iata": "YSY",
        "airport": "Sachs Harbour",
        "city": "Sachs Harbour",
        "country": "Canada",
        "altitude": 86.0,
        "latitude": 71.994,
        "longitude": -125.243
    },
    {
        "icao": "CYTE",
        "iata": "YTE",
        "airport": "Cape Dorset",
        "city": "Cape Dorset",
        "country": "Canada",
        "altitude": 50.0,
        "latitude": 64.23,
        "longitude": -76.527
    },
    {
        "icao": "CYTH",
        "iata": "YTH",
        "airport": "Thompson",
        "city": "Thompson",
        "country": "Canada",
        "altitude": 223.0,
        "latitude": 55.801,
        "longitude": -97.864
    },
    {
        "icao": "CYTR",
        "iata": "YTR",
        "airport": "Trenton",
        "city": "Trenton",
        "country": "Canada",
        "altitude": 87.0,
        "latitude": 44.119,
        "longitude": -77.528
    },
    {
        "icao": "CYTS",
        "iata": "YTS",
        "airport": "Timmins",
        "city": "Timmins",
        "country": "Canada",
        "altitude": 295.0,
        "latitude": 48.57,
        "longitude": -81.377
    },
    {
        "icao": "CYTZ",
        "iata": "YTZ",
        "airport": "City Centre",
        "city": "Toronto",
        "country": "Canada",
        "altitude": 77.0,
        "latitude": 43.627,
        "longitude": -79.396
    },
    {
        "icao": "CYUB",
        "iata": "YUB",
        "airport": "Tuktoyaktuk",
        "city": "Tuktoyaktuk",
        "country": "Canada",
        "altitude": 5.0,
        "latitude": 69.433,
        "longitude": -133.026
    },
    {
        "icao": "CYUL",
        "iata": "YUL",
        "airport": "Montreal International Dorval",
        "city": "Montreal",
        "country": "Canada",
        "altitude": 36.0,
        "latitude": 45.468,
        "longitude": -73.741
    },
    {
        "icao": "CYUT",
        "iata": "YUT",
        "airport": "Repulse Bay",
        "city": "Repulse Bay",
        "country": "Canada",
        "altitude": 25.0,
        "latitude": 66.521,
        "longitude": -86.225
    },
    {
        "icao": "CYUX",
        "iata": "YUX",
        "airport": "Hall Beach",
        "city": "Hall Beach",
        "country": "Canada",
        "altitude": 9.0,
        "latitude": 68.776,
        "longitude": -81.244
    },
    {
        "icao": "CYUY",
        "iata": "YUY",
        "airport": "Rouyn Noranda",
        "city": "Rouyn",
        "country": "Canada",
        "altitude": 302.0,
        "latitude": 48.206,
        "longitude": -78.836
    },
    {
        "icao": "CYVC",
        "iata": "YVC",
        "airport": "La Ronge",
        "city": "La Ronge",
        "country": "Canada",
        "altitude": 379.0,
        "latitude": 55.151,
        "longitude": -105.262
    },
    {
        "icao": "CYVG",
        "iata": "YVG",
        "airport": "Vermilion",
        "city": "Vermillion",
        "country": "Canada",
        "altitude": 618.0,
        "latitude": 53.356,
        "longitude": -110.824
    },
    {
        "icao": "CYVM",
        "iata": "YVM",
        "airport": "Qikiqtarjuaq",
        "city": "Broughton Island",
        "country": "Canada",
        "altitude": 7.0,
        "latitude": 67.546,
        "longitude": -64.031
    },
    {
        "icao": "CYVO",
        "iata": "YVO",
        "airport": "Val D Or",
        "city": "Val D'Or",
        "country": "Canada",
        "altitude": 338.0,
        "latitude": 48.053,
        "longitude": -77.783
    },
    {
        "icao": "CYVP",
        "iata": "YVP",
        "airport": "Kuujjuaq",
        "city": "Quujjuaq",
        "country": "Canada",
        "altitude": 40.0,
        "latitude": 58.096,
        "longitude": -68.427
    },
    {
        "icao": "CYVQ",
        "iata": "YVQ",
        "airport": "Norman Wells",
        "city": "Norman Wells",
        "country": "Canada",
        "altitude": 74.0,
        "latitude": 65.282,
        "longitude": -126.8
    },
    {
        "icao": "CYVR",
        "iata": "YVR",
        "airport": "Vancouver International",
        "city": "Vancouver",
        "country": "Canada",
        "altitude": 5.0,
        "latitude": 49.195,
        "longitude": -123.182
    },
    {
        "icao": "CYVT",
        "iata": "YVT",
        "airport": "Buffalo Narrows",
        "city": "Buffalo Narrows",
        "country": "Canada",
        "altitude": 441.0,
        "latitude": 55.842,
        "longitude": -108.418
    },
    {
        "icao": "CYVV",
        "iata": "YVV",
        "airport": "Wiarton",
        "city": "Wiarton",
        "country": "Canada",
        "altitude": 223.0,
        "latitude": 44.746,
        "longitude": -81.107
    },
    {
        "icao": "CYWA",
        "iata": "YWA",
        "airport": "Petawawa",
        "city": "Petawawa",
        "country": "Canada",
        "altitude": 131.0,
        "latitude": 45.952,
        "longitude": -77.319
    },
    {
        "icao": "CYWG",
        "iata": "YWG",
        "airport": "Winnipeg International",
        "city": "Winnipeg",
        "country": "Canada",
        "altitude": 239.0,
        "latitude": 49.91,
        "longitude": -97.234
    },
    {
        "icao": "CYWK",
        "iata": "YWK",
        "airport": "Wabush",
        "city": "Wabush",
        "country": "Canada",
        "altitude": 552.0,
        "latitude": 52.922,
        "longitude": -66.864
    },
    {
        "icao": "CYWL",
        "iata": "YWL",
        "airport": "Williams Lake",
        "city": "Williams Lake",
        "country": "Canada",
        "altitude": 941.0,
        "latitude": 52.183,
        "longitude": -122.054
    },
    {
        "icao": "CYWY",
        "iata": "YWY",
        "airport": "Wrigley",
        "city": "Wrigley",
        "country": "Canada",
        "altitude": 151.0,
        "latitude": 63.209,
        "longitude": -123.437
    },
    {
        "icao": "CYXC",
        "iata": "YXC",
        "airport": "Cranbrook",
        "city": "Cranbrook",
        "country": "Canada",
        "altitude": 940.0,
        "latitude": 49.61,
        "longitude": -115.782
    },
    {
        "icao": "CYXD",
        "iata": "YXD",
        "airport": "Edmonton City Centre",
        "city": "Edmonton",
        "country": "Canada",
        "altitude": 671.0,
        "latitude": 53.573,
        "longitude": -113.521
    },
    {
        "icao": "CYXE",
        "iata": "YXE",
        "airport": "Saskatoon J G Diefenbaker International",
        "city": "Saskatoon",
        "country": "Canada",
        "altitude": 504.0,
        "latitude": 52.171,
        "longitude": -106.7
    },
    {
        "icao": "CYXH",
        "iata": "YXH",
        "airport": "Medicine Hat",
        "city": "Medicine Hat",
        "country": "Canada",
        "altitude": 717.0,
        "latitude": 50.019,
        "longitude": -110.721
    },
    {
        "icao": "CYXJ",
        "iata": "YXJ",
        "airport": "Fort St John",
        "city": "Fort Saint John",
        "country": "Canada",
        "altitude": 695.0,
        "latitude": 56.238,
        "longitude": -120.74
    },
    {
        "icao": "CYXL",
        "iata": "YXL",
        "airport": "Sioux Lookout",
        "city": "Sioux Lookout",
        "country": "Canada",
        "altitude": 391.0,
        "latitude": 50.114,
        "longitude": -91.904
    },
    {
        "icao": "CYXP",
        "iata": "YXP",
        "airport": "Pangnirtung",
        "city": "Pangnirtung",
        "country": "Canada",
        "altitude": 23.0,
        "latitude": 66.145,
        "longitude": -65.714
    },
    {
        "icao": "CYXR",
        "iata": "YXR",
        "airport": "Timiskaming Rgnl",
        "city": "Earlton",
        "country": "Canada",
        "altitude": 244.0,
        "latitude": 47.695,
        "longitude": -79.849
    },
    {
        "icao": "CYXS",
        "iata": "YXS",
        "airport": "Prince George",
        "city": "Prince George",
        "country": "Canada",
        "altitude": 691.0,
        "latitude": 53.889,
        "longitude": -122.679
    },
    {
        "icao": "CYXT",
        "iata": "YXT",
        "airport": "Terrace",
        "city": "Terrace",
        "country": "Canada",
        "altitude": 218.0,
        "latitude": 54.466,
        "longitude": -128.577
    },
    {
        "icao": "CYXU",
        "iata": "YXU",
        "airport": "London",
        "city": "London",
        "country": "Canada",
        "altitude": 278.0,
        "latitude": 43.036,
        "longitude": -81.154
    },
    {
        "icao": "CYXX",
        "iata": "YXX",
        "airport": "Abbotsford",
        "city": "Abbotsford",
        "country": "Canada",
        "altitude": 58.0,
        "latitude": 49.025,
        "longitude": -122.363
    },
    {
        "icao": "CYXY",
        "iata": "YXY",
        "airport": "Whitehorse International",
        "city": "Whitehorse",
        "country": "Canada",
        "altitude": 707.0,
        "latitude": 60.709,
        "longitude": -135.068
    },
    {
        "icao": "CYYB",
        "iata": "YYB",
        "airport": "North Bay",
        "city": "North Bay",
        "country": "Canada",
        "altitude": 371.0,
        "latitude": 46.364,
        "longitude": -79.423
    },
    {
        "icao": "CYYC",
        "iata": "YYC",
        "airport": "Calgary International",
        "city": "Calgary",
        "country": "Canada",
        "altitude": 1085.0,
        "latitude": 51.114,
        "longitude": -114.02
    },
    {
        "icao": "CYYD",
        "iata": "YYD",
        "airport": "Smithers",
        "city": "Smithers",
        "country": "Canada",
        "altitude": 522.0,
        "latitude": 54.825,
        "longitude": -127.183
    },
    {
        "icao": "CYYE",
        "iata": "YYE",
        "airport": "Fort Nelson",
        "city": "Fort Nelson",
        "country": "Canada",
        "altitude": 382.0,
        "latitude": 58.836,
        "longitude": -122.597
    },
    {
        "icao": "CYYF",
        "iata": "YYF",
        "airport": "Penticton",
        "city": "Penticton",
        "country": "Canada",
        "altitude": 345.0,
        "latitude": 49.463,
        "longitude": -119.602
    },
    {
        "icao": "CYYG",
        "iata": "YYG",
        "airport": "Charlottetown",
        "city": "Charlottetown",
        "country": "Canada",
        "altitude": 49.0,
        "latitude": 46.29,
        "longitude": -63.121
    },
    {
        "icao": "CYYH",
        "iata": "YYH",
        "airport": "Taloyoak",
        "city": "Spence Bay",
        "country": "Canada",
        "altitude": 29.0,
        "latitude": 69.547,
        "longitude": -93.577
    },
    {
        "icao": "CYYJ",
        "iata": "YYJ",
        "airport": "Victoria International",
        "city": "Victoria",
        "country": "Canada",
        "altitude": 20.0,
        "latitude": 48.647,
        "longitude": -123.426
    },
    {
        "icao": "CYYL",
        "iata": "YYL",
        "airport": "Lynn Lake",
        "city": "Lynn Lake",
        "country": "Canada",
        "altitude": 357.0,
        "latitude": 56.864,
        "longitude": -101.076
    },
    {
        "icao": "CYYN",
        "iata": "YYN",
        "airport": "Swift Current",
        "city": "Swift Current",
        "country": "Canada",
        "altitude": 817.0,
        "latitude": 50.292,
        "longitude": -107.691
    },
    {
        "icao": "CYYQ",
        "iata": "YYQ",
        "airport": "Churchill",
        "city": "Churchill",
        "country": "Canada",
        "altitude": 29.0,
        "latitude": 58.739,
        "longitude": -94.065
    },
    {
        "icao": "CYYR",
        "iata": "YYR",
        "airport": "Goose Bay",
        "city": "Goose Bay",
        "country": "Canada",
        "altitude": 49.0,
        "latitude": 53.319,
        "longitude": -60.426
    },
    {
        "icao": "CYYT",
        "iata": "YYT",
        "airport": "St Johns International",
        "city": "St. John'S",
        "country": "Canada",
        "altitude": 141.0,
        "latitude": 47.619,
        "longitude": -52.752
    },
    {
        "icao": "CYYU",
        "iata": "YYU",
        "airport": "Kapuskasing",
        "city": "Kapuskasing",
        "country": "Canada",
        "altitude": 227.0,
        "latitude": 49.414,
        "longitude": -82.468
    },
    {
        "icao": "CYYW",
        "iata": "YYW",
        "airport": "Armstrong",
        "city": "Armstrong",
        "country": "Canada",
        "altitude": 323.0,
        "latitude": 50.29,
        "longitude": -88.91
    },
    {
        "icao": "CYYY",
        "iata": "YYY",
        "airport": "Mont Joli",
        "city": "Mont Joli",
        "country": "Canada",
        "altitude": 53.0,
        "latitude": 48.609,
        "longitude": -68.208
    },
    {
        "icao": "CYYZ",
        "iata": "YYZ",
        "airport": "Lester B Pearson International",
        "city": "Toronto",
        "country": "Canada",
        "altitude": 174.0,
        "latitude": 43.677,
        "longitude": -79.631
    },
    {
        "icao": "CYZD",
        "iata": "YZD",
        "airport": "Downsview",
        "city": "Toronto",
        "country": "Canada",
        "altitude": 199.0,
        "latitude": 43.742,
        "longitude": -79.466
    },
    {
        "icao": "CYZE",
        "iata": "YZE",
        "airport": "Gore Bay Manitoulin",
        "city": "Gore Bay",
        "country": "Canada",
        "altitude": 194.0,
        "latitude": 45.885,
        "longitude": -82.568
    },
    {
        "icao": "CYZF",
        "iata": "YZF",
        "airport": "Yellowknife",
        "city": "Yellowknife",
        "country": "Canada",
        "altitude": 206.0,
        "latitude": 62.463,
        "longitude": -114.44
    },
    {
        "icao": "CYZH",
        "iata": "YZH",
        "airport": "Slave Lake",
        "city": "Slave Lake",
        "country": "Canada",
        "altitude": 583.0,
        "latitude": 55.293,
        "longitude": -114.778
    },
    {
        "icao": "CYZP",
        "iata": "YZP",
        "airport": "Sandspit",
        "city": "Sandspit",
        "country": "Canada",
        "altitude": 7.0,
        "latitude": 53.254,
        "longitude": -131.814
    },
    {
        "icao": "CYZR",
        "iata": "YZR",
        "airport": "Chris Hadfield",
        "city": "Sarnia",
        "country": "Canada",
        "altitude": 182.0,
        "latitude": 42.999,
        "longitude": -82.309
    },
    {
        "icao": "CYZT",
        "iata": "YZT",
        "airport": "Port Hardy",
        "city": "Port Hardy",
        "country": "Canada",
        "altitude": 22.0,
        "latitude": 50.681,
        "longitude": -127.367
    },
    {
        "icao": "CYZU",
        "iata": "YZU",
        "airport": "Whitecourt",
        "city": "Whitecourt",
        "country": "Canada",
        "altitude": 783.0,
        "latitude": 54.144,
        "longitude": -115.787
    },
    {
        "icao": "CYZV",
        "iata": "YZV",
        "airport": "Sept Iles",
        "city": "Sept-Iles",
        "country": "Canada",
        "altitude": 55.0,
        "latitude": 50.223,
        "longitude": -66.266
    },
    {
        "icao": "CYZW",
        "iata": "YZW",
        "airport": "Teslin",
        "city": "Teslin",
        "country": "Canada",
        "altitude": 706.0,
        "latitude": 60.173,
        "longitude": -132.743
    },
    {
        "icao": "CYZX",
        "iata": "YZX",
        "airport": "Greenwood",
        "city": "Greenwood",
        "country": "Canada",
        "altitude": 29.0,
        "latitude": 44.984,
        "longitude": -64.917
    },
    {
        "icao": "CZFA",
        "iata": "ZFA",
        "airport": "Faro",
        "city": "Faro",
        "country": "Canada",
        "altitude": 717.0,
        "latitude": 62.208,
        "longitude": -133.376
    },
    {
        "icao": "CZFM",
        "iata": "ZFM",
        "airport": "Fort Mcpherson",
        "city": "Fort Mcpherson",
        "country": "Canada",
        "altitude": 44.0,
        "latitude": 67.408,
        "longitude": -134.86
    },
    {
        "icao": "DAAB",
        "iata": "N/A",
        "airport": "Blida",
        "city": "Blida",
        "country": "Algeria",
        "altitude": 164.0,
        "latitude": 36.504,
        "longitude": 2.814
    },
    {
        "icao": "DAAD",
        "iata": "N/A",
        "airport": "Bou Saada",
        "city": "Bou Saada",
        "country": "Algeria",
        "altitude": 460.0,
        "latitude": 35.333,
        "longitude": 4.206
    },
    {
        "icao": "DAAE",
        "iata": "BJA",
        "airport": "Soummam",
        "city": "Bejaja",
        "country": "Algeria",
        "altitude": 7.0,
        "latitude": 36.712,
        "longitude": 5.07
    },
    {
        "icao": "DAAG",
        "iata": "ALG",
        "airport": "Houari Boumediene",
        "city": "Algier",
        "country": "Algeria",
        "altitude": 25.0,
        "latitude": 36.691,
        "longitude": 3.215
    },
    {
        "icao": "DAAJ",
        "iata": "DJG",
        "airport": "Tiska",
        "city": "Djanet",
        "country": "Algeria",
        "altitude": 969.0,
        "latitude": 24.293,
        "longitude": 9.452
    },
    {
        "icao": "DAAK",
        "iata": "N/A",
        "airport": "Boufarik",
        "city": "Boufarik",
        "country": "Algeria",
        "altitude": 103.0,
        "latitude": 36.546,
        "longitude": 2.876
    },
    {
        "icao": "DAAM",
        "iata": "N/A",
        "airport": "Telerghma",
        "city": "Telergma",
        "country": "Algeria",
        "altitude": 758.0,
        "latitude": 36.109,
        "longitude": 6.364
    },
    {
        "icao": "DAAN",
        "iata": "N/A",
        "airport": "Reggane",
        "city": "Reggan",
        "country": "Algeria",
        "altitude": 292.0,
        "latitude": 26.71,
        "longitude": 0.286
    },
    {
        "icao": "DAAP",
        "iata": "VVZ",
        "airport": "Illizi",
        "city": "Illizi",
        "country": "Algeria",
        "altitude": 542.0,
        "latitude": 26.573,
        "longitude": 8.484
    },
    {
        "icao": "DAAQ",
        "iata": "N/A",
        "airport": "Ain Oussera",
        "city": "Ain Oussera",
        "country": "Algeria",
        "altitude": 650.0,
        "latitude": 35.525,
        "longitude": 2.879
    },
    {
        "icao": "DAAS",
        "iata": "GSF",
        "airport": "Setif Ain Arnat",
        "city": "Setif",
        "country": "Algeria",
        "altitude": 1025.0,
        "latitude": 36.178,
        "longitude": 5.324
    },
    {
        "icao": "DAAT",
        "iata": "TMR",
        "airport": "Tamanrasset",
        "city": "Tamanrasset",
        "country": "Algeria",
        "altitude": 1378.0,
        "latitude": 22.811,
        "longitude": 5.451
    },
    {
        "icao": "DAAV",
        "iata": "GJL",
        "airport": "Jijel",
        "city": "Jijel",
        "country": "Algeria",
        "altitude": 11.0,
        "latitude": 36.795,
        "longitude": 5.873
    },
    {
        "icao": "DAAY",
        "iata": "N/A",
        "airport": "Mecheria",
        "city": "Mecheria",
        "country": "Algeria",
        "altitude": 1176.0,
        "latitude": 33.536,
        "longitude": -0.242
    },
    {
        "icao": "DAAZ",
        "iata": "N/A",
        "airport": "Relizane",
        "city": "Relizane",
        "country": "Algeria",
        "altitude": 86.0,
        "latitude": 35.752,
        "longitude": 0.626
    },
    {
        "icao": "DABB",
        "iata": "AAE",
        "airport": "Annaba",
        "city": "Annaba",
        "country": "Algeria",
        "altitude": 5.0,
        "latitude": 36.822,
        "longitude": 7.809
    },
    {
        "icao": "DABC",
        "iata": "CZL",
        "airport": "Mohamed Boudiaf International",
        "city": "Constantine",
        "country": "Algeria",
        "altitude": 691.0,
        "latitude": 36.277,
        "longitude": 6.624
    },
    {
        "icao": "DABS",
        "iata": "TEE",
        "airport": "Cheikh Larbi Tebessi",
        "city": "Tebessa",
        "country": "Algeria",
        "altitude": 812.0,
        "latitude": 35.431,
        "longitude": 8.121
    },
    {
        "icao": "DAFH",
        "iata": "HRM",
        "airport": "Hassi R Mel",
        "city": "Tilrempt",
        "country": "Algeria",
        "altitude": 775.0,
        "latitude": 32.93,
        "longitude": 3.312
    },
    {
        "icao": "DAOB",
        "iata": "TID",
        "airport": "Bou Chekif",
        "city": "Tiaret",
        "country": "Algeria",
        "altitude": 990.0,
        "latitude": 35.341,
        "longitude": 1.463
    },
    {
        "icao": "DAOE",
        "iata": "N/A",
        "airport": "Bou Sfer",
        "city": "Bou Sfer",
        "country": "Algeria",
        "altitude": 57.0,
        "latitude": 35.735,
        "longitude": -0.805
    },
    {
        "icao": "DAOF",
        "iata": "TIN",
        "airport": "Tindouf",
        "city": "Tindouf",
        "country": "Algeria",
        "altitude": 443.0,
        "latitude": 27.7,
        "longitude": -8.167
    },
    {
        "icao": "DAOI",
        "iata": "QAS",
        "airport": "Ech Cheliff",
        "city": "Ech-Cheliff",
        "country": "Algeria",
        "altitude": 142.0,
        "latitude": 36.213,
        "longitude": 1.332
    },
    {
        "icao": "DAOL",
        "iata": "TAF",
        "airport": "Tafaraoui",
        "city": "Oran",
        "country": "Algeria",
        "altitude": 112.0,
        "latitude": 35.542,
        "longitude": -0.532
    },
    {
        "icao": "DAON",
        "iata": "TLM",
        "airport": "Zenata",
        "city": "Tlemcen",
        "country": "Algeria",
        "altitude": 249.0,
        "latitude": 35.017,
        "longitude": -1.45
    },
    {
        "icao": "DAOO",
        "iata": "ORN",
        "airport": "Es Senia",
        "city": "Oran",
        "country": "Algeria",
        "altitude": 90.0,
        "latitude": 35.624,
        "longitude": -0.621
    },
    {
        "icao": "DAOS",
        "iata": "N/A",
        "airport": "Sidi Bel Abbes",
        "city": "Sidi Bel Abbes",
        "country": "Algeria",
        "altitude": 492.0,
        "latitude": 35.172,
        "longitude": -0.593
    },
    {
        "icao": "DAOV",
        "iata": "MUW",
        "airport": "Ghriss",
        "city": "Ghriss",
        "country": "Algeria",
        "altitude": 514.0,
        "latitude": 35.208,
        "longitude": 0.147
    },
    {
        "icao": "DAUA",
        "iata": "AZR",
        "airport": "Touat Cheikh Sidi Mohamed Belkebir",
        "city": "Adrar",
        "country": "Algeria",
        "altitude": 281.0,
        "latitude": 27.837,
        "longitude": -0.186
    },
    {
        "icao": "DAUB",
        "iata": "BSK",
        "airport": "Biskra",
        "city": "Biskra",
        "country": "Algeria",
        "altitude": 89.0,
        "latitude": 34.793,
        "longitude": 5.738
    },
    {
        "icao": "DAUE",
        "iata": "ELG",
        "airport": "El Golea",
        "city": "El Golea",
        "country": "Algeria",
        "altitude": 399.0,
        "latitude": 30.571,
        "longitude": 2.859
    },
    {
        "icao": "DAUG",
        "iata": "GHA",
        "airport": "Noumerate",
        "city": "Ghardaia",
        "country": "Algeria",
        "altitude": 461.0,
        "latitude": 32.384,
        "longitude": 3.794
    },
    {
        "icao": "DAUH",
        "iata": "HME",
        "airport": "Oued Irara",
        "city": "Hassi-Messaoud",
        "country": "Algeria",
        "altitude": 142.0,
        "latitude": 31.673,
        "longitude": 6.14
    },
    {
        "icao": "DAUI",
        "iata": "INZ",
        "airport": "In Salah",
        "city": "In Salah",
        "country": "Algeria",
        "altitude": 270.0,
        "latitude": 27.251,
        "longitude": 2.512
    },
    {
        "icao": "DAUK",
        "iata": "TGR",
        "airport": "Sidi Mahdi",
        "city": "Touggourt",
        "country": "Algeria",
        "altitude": 86.0,
        "latitude": 33.068,
        "longitude": 6.089
    },
    {
        "icao": "DAUL",
        "iata": "LOO",
        "airport": "Laghouat",
        "city": "Laghouat",
        "country": "Algeria",
        "altitude": 766.0,
        "latitude": 33.764,
        "longitude": 2.927
    },
    {
        "icao": "DAUT",
        "iata": "TMX",
        "airport": "Timimoun",
        "city": "Timimoun",
        "country": "Algeria",
        "altitude": 314.0,
        "latitude": 29.237,
        "longitude": 0.276
    },
    {
        "icao": "DAUU",
        "iata": "OGX",
        "airport": "Ouargla",
        "city": "Ouargla",
        "country": "Algeria",
        "altitude": 150.0,
        "latitude": 31.917,
        "longitude": 5.413
    },
    {
        "icao": "DAUZ",
        "iata": "IAM",
        "airport": "In Amenas",
        "city": "Zarzaitine",
        "country": "Algeria",
        "altitude": 563.0,
        "latitude": 28.051,
        "longitude": 9.643
    },
    {
        "icao": "DBBB",
        "iata": "COO",
        "airport": "Cotonou Cadjehoun",
        "city": "Cotonou",
        "country": "Benin",
        "altitude": 6.0,
        "latitude": 6.357,
        "longitude": 2.384
    },
    {
        "icao": "DBBP",
        "iata": "PKO",
        "airport": "Parakou",
        "city": "Parakou",
        "country": "Benin",
        "altitude": 386.0,
        "latitude": 9.357,
        "longitude": 2.609
    },
    {
        "icao": "DFFD",
        "iata": "OUA",
        "airport": "Ouagadougou",
        "city": "Ouagadougou",
        "country": "Burkina Faso",
        "altitude": 317.0,
        "latitude": 12.353,
        "longitude": -1.512
    },
    {
        "icao": "DFOO",
        "iata": "BOY",
        "airport": "Bobo Dioulasso",
        "city": "Bobo-Dioulasso",
        "country": "Burkina Faso",
        "altitude": 461.0,
        "latitude": 11.16,
        "longitude": -4.331
    },
    {
        "icao": "DGAA",
        "iata": "ACC",
        "airport": "Kotoka International",
        "city": "Accra",
        "country": "Ghana",
        "altitude": 63.0,
        "latitude": 5.603,
        "longitude": -0.168
    },
    {
        "icao": "DGLE",
        "iata": "TML",
        "airport": "Tamale",
        "city": "Tamale",
        "country": "Ghana",
        "altitude": 169.0,
        "latitude": 9.563,
        "longitude": -0.863
    },
    {
        "icao": "DGLW",
        "iata": "N/A",
        "airport": "Wa",
        "city": "Wa",
        "country": "Ghana",
        "altitude": 324.0,
        "latitude": 10.082,
        "longitude": -2.507
    },
    {
        "icao": "DGSN",
        "iata": "NYI",
        "airport": "Sunyani",
        "city": "Sunyani",
        "country": "Ghana",
        "altitude": 310.0,
        "latitude": 7.362,
        "longitude": -2.329
    },
    {
        "icao": "DGTK",
        "iata": "TKD",
        "airport": "Takoradi",
        "city": "Takoradi",
        "country": "Ghana",
        "altitude": 7.0,
        "latitude": 4.893,
        "longitude": -1.775
    },
    {
        "icao": "DIAP",
        "iata": "ABJ",
        "airport": "Abidjan Felix Houphouet Boigny International",
        "city": "Abidjan",
        "country": "Ivory Coast",
        "altitude": 7.0,
        "latitude": 5.26,
        "longitude": -3.926
    },
    {
        "icao": "DIBK",
        "iata": "BYK",
        "airport": "Bouake",
        "city": "Bouake",
        "country": "Ivory Coast",
        "altitude": 375.0,
        "latitude": 7.739,
        "longitude": -5.074
    },
    {
        "icao": "DIDL",
        "iata": "DJO",
        "airport": "Daloa",
        "city": "Daloa",
        "country": "Ivory Coast",
        "altitude": 251.0,
        "latitude": 6.792,
        "longitude": -6.473
    },
    {
        "icao": "DIKO",
        "iata": "HGO",
        "airport": "Korhogo",
        "city": "Korhogo",
        "country": "Ivory Coast",
        "altitude": 370.0,
        "latitude": 9.387,
        "longitude": -5.556
    },
    {
        "icao": "DIMN",
        "iata": "MJC",
        "airport": "Man",
        "city": "Man",
        "country": "Ivory Coast",
        "altitude": 332.0,
        "latitude": 7.272,
        "longitude": -7.587
    },
    {
        "icao": "DISP",
        "iata": "SPY",
        "airport": "San Pedro",
        "city": "San Pedro",
        "country": "Ivory Coast",
        "altitude": 8.0,
        "latitude": 4.747,
        "longitude": -6.661
    },
    {
        "icao": "DIYO",
        "iata": "ASK",
        "airport": "Yamoussoukro",
        "city": "Yamoussoukro",
        "country": "Ivory Coast",
        "altitude": 214.0,
        "latitude": 6.903,
        "longitude": -5.366
    },
    {
        "icao": "DNAA",
        "iata": "ABV",
        "airport": "Abuja Nnamdi Azikiwe International",
        "city": "Abuja",
        "country": "Nigeria",
        "altitude": 343.0,
        "latitude": 9.007,
        "longitude": 7.263
    },
    {
        "icao": "DNAK",
        "iata": "AKR",
        "airport": "Akure",
        "city": "Akure",
        "country": "Nigeria",
        "altitude": 336.0,
        "latitude": 7.247,
        "longitude": 5.301
    },
    {
        "icao": "DNBE",
        "iata": "BNI",
        "airport": "Benin",
        "city": "Benin",
        "country": "Nigeria",
        "altitude": 79.0,
        "latitude": 6.317,
        "longitude": 5.599
    },
    {
        "icao": "DNCA",
        "iata": "CBQ",
        "airport": "Calabar",
        "city": "Calabar",
        "country": "Nigeria",
        "altitude": 65.0,
        "latitude": 4.976,
        "longitude": 8.347
    },
    {
        "icao": "DNEN",
        "iata": "ENU",
        "airport": "Enugu",
        "city": "Enugu",
        "country": "Nigeria",
        "altitude": 143.0,
        "latitude": 6.474,
        "longitude": 7.562
    },
    {
        "icao": "DNGU",
        "iata": "QUS",
        "airport": "Gusau",
        "city": "Gusau",
        "country": "Nigeria",
        "altitude": 464.0,
        "latitude": 12.172,
        "longitude": 6.696
    },
    {
        "icao": "DNIB",
        "iata": "IBA",
        "airport": "Ibadan",
        "city": "Ibadan",
        "country": "Nigeria",
        "altitude": 221.0,
        "latitude": 7.362,
        "longitude": 3.978
    },
    {
        "icao": "DNIL",
        "iata": "ILR",
        "airport": "Ilorin",
        "city": "Ilorin",
        "country": "Nigeria",
        "altitude": 343.0,
        "latitude": 8.44,
        "longitude": 4.494
    },
    {
        "icao": "DNJO",
        "iata": "JOS",
        "airport": "Jos",
        "city": "Jos",
        "country": "Nigeria",
        "altitude": 1290.0,
        "latitude": 9.64,
        "longitude": 8.869
    },
    {
        "icao": "DNKA",
        "iata": "KAD",
        "airport": "Kaduna",
        "city": "Kaduna",
        "country": "Nigeria",
        "altitude": 632.0,
        "latitude": 10.696,
        "longitude": 7.32
    },
    {
        "icao": "DNKN",
        "iata": "KAN",
        "airport": "Kano Mallam Aminu International",
        "city": "Kano",
        "country": "Nigeria",
        "altitude": 478.0,
        "latitude": 12.047,
        "longitude": 8.524
    },
    {
        "icao": "DNMA",
        "iata": "MIU",
        "airport": "Maiduguri",
        "city": "Maiduguri",
        "country": "Nigeria",
        "altitude": 336.0,
        "latitude": 11.855,
        "longitude": 13.081
    },
    {
        "icao": "DNMK",
        "iata": "MDI",
        "airport": "Makurdi",
        "city": "Makurdi",
        "country": "Nigeria",
        "altitude": 114.0,
        "latitude": 7.704,
        "longitude": 8.614
    },
    {
        "icao": "DNMM",
        "iata": "LOS",
        "airport": "Lagos Murtala Muhammed",
        "city": "Lagos",
        "country": "Nigeria",
        "altitude": 42.0,
        "latitude": 6.577,
        "longitude": 3.321
    },
    {
        "icao": "DNMN",
        "iata": "MXJ",
        "airport": "Minna New",
        "city": "Minna",
        "country": "Nigeria",
        "altitude": 255.0,
        "latitude": 9.652,
        "longitude": 6.462
    },
    {
        "icao": "DNPO",
        "iata": "PHC",
        "airport": "Port Harcourt International",
        "city": "Port Hartcourt",
        "country": "Nigeria",
        "altitude": 25.0,
        "latitude": 5.015,
        "longitude": 6.949
    },
    {
        "icao": "DNSO",
        "iata": "SKO",
        "airport": "Sadiq Abubakar Iii International",
        "city": "Sokoto",
        "country": "Nigeria",
        "altitude": 307.0,
        "latitude": 12.916,
        "longitude": 5.207
    },
    {
        "icao": "DNYO",
        "iata": "YOL",
        "airport": "Yola",
        "city": "Yola",
        "country": "Nigeria",
        "altitude": 183.0,
        "latitude": 9.26,
        "longitude": 12.43
    },
    {
        "icao": "DNZA",
        "iata": "ZAR",
        "airport": "Zaria",
        "city": "Zaria",
        "country": "Nigeria",
        "altitude": 656.0,
        "latitude": 11.13,
        "longitude": 7.686
    },
    {
        "icao": "DRRM",
        "iata": "MFG",
        "airport": "Maradi",
        "city": "Maradi",
        "country": "Niger",
        "altitude": 378.0,
        "latitude": 13.502,
        "longitude": 7.127
    },
    {
        "icao": "DRRN",
        "iata": "NIM",
        "airport": "Diori Hamani",
        "city": "Niamey",
        "country": "Niger",
        "altitude": 224.0,
        "latitude": 13.481,
        "longitude": 2.184
    },
    {
        "icao": "DRRT",
        "iata": "THZ",
        "airport": "Tahoua",
        "city": "Tahoua",
        "country": "Niger",
        "altitude": 386.0,
        "latitude": 14.876,
        "longitude": 5.265
    },
    {
        "icao": "DRZA",
        "iata": "AJY",
        "airport": "Manu Dayak",
        "city": "Agadez",
        "country": "Niger",
        "altitude": 506.0,
        "latitude": 16.965,
        "longitude": 7.997
    },
    {
        "icao": "DRZD",
        "iata": "N/A",
        "airport": "Dirkou",
        "city": "Dirkou",
        "country": "Niger",
        "altitude": 389.0,
        "latitude": 18.969,
        "longitude": 12.869
    },
    {
        "icao": "DRZF",
        "iata": "N/A",
        "airport": "Diffa",
        "city": "Diffa",
        "country": "Niger",
        "altitude": 303.0,
        "latitude": 13.373,
        "longitude": 12.627
    },
    {
        "icao": "DRZR",
        "iata": "ZND",
        "airport": "Zinder",
        "city": "Zinder",
        "country": "Niger",
        "altitude": 460.0,
        "latitude": 13.779,
        "longitude": 8.984
    },
    {
        "icao": "DRZT",
        "iata": "N/A",
        "airport": "Tanout",
        "city": "Tanout",
        "country": "Niger",
        "altitude": 537.0,
        "latitude": 14.999,
        "longitude": 8.767
    },
    {
        "icao": "DTMB",
        "iata": "MIR",
        "airport": "Habib Bourguiba International",
        "city": "Monastir",
        "country": "Tunisia",
        "altitude": 3.0,
        "latitude": 35.758,
        "longitude": 10.755
    },
    {
        "icao": "DTTA",
        "iata": "TUN",
        "airport": "Carthage",
        "city": "Tunis",
        "country": "Tunisia",
        "altitude": 7.0,
        "latitude": 36.851,
        "longitude": 10.227
    },
    {
        "icao": "DTTB",
        "iata": "N/A",
        "airport": "Sidi Ahmed Air Base",
        "city": "Bizerte",
        "country": "Tunisia",
        "altitude": 7.0,
        "latitude": 37.245,
        "longitude": 9.791
    },
    {
        "icao": "DTTD",
        "iata": "N/A",
        "airport": "Remada",
        "city": "Remada",
        "country": "Tunisia",
        "altitude": 307.0,
        "latitude": 32.306,
        "longitude": 10.382
    },
    {
        "icao": "DTTF",
        "iata": "GAF",
        "airport": "Gafsa",
        "city": "Gafsa",
        "country": "Tunisia",
        "altitude": 324.0,
        "latitude": 34.422,
        "longitude": 8.822
    },
    {
        "icao": "DTTG",
        "iata": "GAE",
        "airport": "Gabes",
        "city": "Gabes",
        "country": "Tunisia",
        "altitude": 8.0,
        "latitude": 33.877,
        "longitude": 10.103
    },
    {
        "icao": "DTTI",
        "iata": "N/A",
        "airport": "Bordj El Amri",
        "city": "Bordj El Amri",
        "country": "Tunisia",
        "altitude": 34.0,
        "latitude": 36.721,
        "longitude": 9.943
    },
    {
        "icao": "DTTJ",
        "iata": "DJE",
        "airport": "Zarzis",
        "city": "Djerba",
        "country": "Tunisia",
        "altitude": 6.0,
        "latitude": 33.875,
        "longitude": 10.775
    },
    {
        "icao": "DTTR",
        "iata": "EBM",
        "airport": "El Borma",
        "city": "El Borma",
        "country": "Tunisia",
        "altitude": 253.0,
        "latitude": 31.704,
        "longitude": 9.254
    },
    {
        "icao": "DTTX",
        "iata": "SFA",
        "airport": "Thyna",
        "city": "Sfax",
        "country": "Tunisia",
        "altitude": 26.0,
        "latitude": 34.718,
        "longitude": 10.691
    },
    {
        "icao": "DTTZ",
        "iata": "TOE",
        "airport": "Nefta",
        "city": "Tozeur",
        "country": "Tunisia",
        "altitude": 88.0,
        "latitude": 33.94,
        "longitude": 8.111
    },
    {
        "icao": "DXNG",
        "iata": "LRL",
        "airport": "Niamtougou",
        "city": "Niatougou",
        "country": "Togo",
        "altitude": 462.0,
        "latitude": 9.767,
        "longitude": 1.091
    },
    {
        "icao": "DXXX",
        "iata": "LFW",
        "airport": "Lome Tokoin",
        "city": "Lome",
        "country": "Togo",
        "altitude": 22.0,
        "latitude": 6.166,
        "longitude": 1.254
    },
    {
        "icao": "EBAW",
        "iata": "ANR",
        "airport": "Deurne",
        "city": "Antwerp",
        "country": "Belgium",
        "altitude": 12.0,
        "latitude": 51.19,
        "longitude": 4.463
    },
    {
        "icao": "EBBE",
        "iata": "N/A",
        "airport": "Beauvechain",
        "city": "Beauvechain",
        "country": "Belgium",
        "altitude": 113.0,
        "latitude": 50.759,
        "longitude": 4.768
    },
    {
        "icao": "EBBL",
        "iata": "N/A",
        "airport": "Kleine Brogel",
        "city": "Kleine Brogel",
        "country": "Belgium",
        "altitude": 61.0,
        "latitude": 51.168,
        "longitude": 5.471
    },
    {
        "icao": "EBBR",
        "iata": "BRU",
        "airport": "Brussels Natl",
        "city": "Brussels",
        "country": "Belgium",
        "altitude": 57.0,
        "latitude": 50.902,
        "longitude": 4.499
    },
    {
        "icao": "EBBT",
        "iata": "N/A",
        "airport": "Braaschaat",
        "city": "Brasschaat",
        "country": "Belgium",
        "altitude": 22.0,
        "latitude": 51.333,
        "longitude": 4.5
    },
    {
        "icao": "EBBX",
        "iata": "N/A",
        "airport": "Bertrix Jehonville",
        "city": "Bertrix",
        "country": "Belgium",
        "altitude": 462.0,
        "latitude": 49.887,
        "longitude": 5.229
    },
    {
        "icao": "EBCI",
        "iata": "CRL",
        "airport": "Brussels South",
        "city": "Charleroi",
        "country": "Belgium",
        "altitude": 188.0,
        "latitude": 50.459,
        "longitude": 4.454
    },
    {
        "icao": "EBCV",
        "iata": "N/A",
        "airport": "Chievres Ab",
        "city": "Chievres",
        "country": "Belgium",
        "altitude": 61.0,
        "latitude": 50.576,
        "longitude": 3.831
    },
    {
        "icao": "EBFN",
        "iata": "N/A",
        "airport": "Koksijde",
        "city": "Koksijde",
        "country": "Belgium",
        "altitude": 7.0,
        "latitude": 51.09,
        "longitude": 2.653
    },
    {
        "icao": "EBFS",
        "iata": "N/A",
        "airport": "Florennes",
        "city": "Florennes",
        "country": "Belgium",
        "altitude": 285.0,
        "latitude": 50.244,
        "longitude": 4.649
    },
    {
        "icao": "EBKT",
        "iata": "QKT",
        "airport": "Wevelgem",
        "city": "Kortrijk-Vevelgem",
        "country": "Belgium",
        "altitude": 19.0,
        "latitude": 50.818,
        "longitude": 3.208
    },
    {
        "icao": "EBLG",
        "iata": "LGG",
        "airport": "Liege",
        "city": "Liege",
        "country": "Belgium",
        "altitude": 201.0,
        "latitude": 50.637,
        "longitude": 5.443
    },
    {
        "icao": "EBOS",
        "iata": "OST",
        "airport": "Oostende",
        "city": "Ostend",
        "country": "Belgium",
        "altitude": 4.0,
        "latitude": 51.199,
        "longitude": 2.862
    },
    {
        "icao": "EBSL",
        "iata": "N/A",
        "airport": "Zutendaal",
        "city": "Zutendaal",
        "country": "Belgium",
        "altitude": 96.0,
        "latitude": 50.948,
        "longitude": 5.592
    },
    {
        "icao": "EBST",
        "iata": "N/A",
        "airport": "St Truiden",
        "city": "Sint-Truiden",
        "country": "Belgium",
        "altitude": 75.0,
        "latitude": 50.788,
        "longitude": 5.193
    },
    {
        "icao": "EBUL",
        "iata": "N/A",
        "airport": "Ursel",
        "city": "Ursel",
        "country": "Belgium",
        "altitude": 29.0,
        "latitude": 51.144,
        "longitude": 3.474
    },
    {
        "icao": "EBWE",
        "iata": "N/A",
        "airport": "Weelde",
        "city": "Weelde",
        "country": "Belgium",
        "altitude": 33.0,
        "latitude": 51.395,
        "longitude": 4.961
    },
    {
        "icao": "EBZR",
        "iata": "N/A",
        "airport": "Zoersel",
        "city": "Zoersel",
        "country": "Belgium",
        "altitude": 17.0,
        "latitude": 51.266,
        "longitude": 4.755
    },
    {
        "icao": "EDAB",
        "iata": "BBJ",
        "airport": "Bautzen",
        "city": "Bautzen",
        "country": "Germany",
        "altitude": 174.0,
        "latitude": 51.193,
        "longitude": 14.52
    },
    {
        "icao": "EDAC",
        "iata": "AOC",
        "airport": "Altenburg Nobitz",
        "city": "Altenburg",
        "country": "Germany",
        "altitude": 196.0,
        "latitude": 50.982,
        "longitude": 12.506
    },
    {
        "icao": "EDAD",
        "iata": "N/A",
        "airport": "Dessau",
        "city": "Dessau",
        "country": "Germany",
        "altitude": 57.0,
        "latitude": 51.832,
        "longitude": 12.186
    },
    {
        "icao": "EDAE",
        "iata": "N/A",
        "airport": "Eisenhuttenstadt",
        "city": "Eisenhuettenstadt",
        "country": "Germany",
        "altitude": 46.0,
        "latitude": 52.197,
        "longitude": 14.586
    },
    {
        "icao": "EDAH",
        "iata": "N/A",
        "airport": "Heringsdorf",
        "city": "Heringsdorf",
        "country": "Germany",
        "altitude": 29.0,
        "latitude": 53.879,
        "longitude": 14.152
    },
    {
        "icao": "EDAK",
        "iata": "N/A",
        "airport": "Grossenhain",
        "city": "Suhl",
        "country": "Germany",
        "altitude": 128.0,
        "latitude": 51.308,
        "longitude": 13.555
    },
    {
        "icao": "EDAM",
        "iata": "N/A",
        "airport": "Merseburg",
        "city": "Muehlhausen",
        "country": "Germany",
        "altitude": 104.0,
        "latitude": 51.363,
        "longitude": 11.941
    },
    {
        "icao": "EDAQ",
        "iata": "N/A",
        "airport": "Halle Oppin",
        "city": "Halle",
        "country": "Germany",
        "altitude": 106.0,
        "latitude": 51.552,
        "longitude": 12.053
    },
    {
        "icao": "EDAU",
        "iata": "N/A",
        "airport": "Riesa Gohlis",
        "city": "Riesa",
        "country": "Germany",
        "altitude": 99.0,
        "latitude": 51.294,
        "longitude": 13.359
    },
    {
        "icao": "EDAX",
        "iata": "N/A",
        "airport": "Rechlin Larz",
        "city": "Rechlin-Laerz",
        "country": "Germany",
        "altitude": 68.0,
        "latitude": 53.306,
        "longitude": 12.753
    },
    {
        "icao": "EDAY",
        "iata": "N/A",
        "airport": "Strausberg",
        "city": "Strausberg",
        "country": "Germany",
        "altitude": 81.0,
        "latitude": 52.58,
        "longitude": 13.916
    },
    {
        "icao": "EDAZ",
        "iata": "N/A",
        "airport": "Schonhagen",
        "city": "Schoenhagen",
        "country": "Germany",
        "altitude": 40.0,
        "latitude": 52.203,
        "longitude": 13.159
    },
    {
        "icao": "EDBC",
        "iata": "N/A",
        "airport": "Cochstedt Schneidlingen",
        "city": "Cochstedt",
        "country": "Germany",
        "altitude": 182.0,
        "latitude": 51.856,
        "longitude": 11.418
    },
    {
        "icao": "EDBG",
        "iata": "GWW",
        "airport": "Goldsboro Wayne Muni",
        "city": "Gotha Ost",
        "country": "Germany",
        "altitude": 41.0,
        "latitude": 35.461,
        "longitude": -77.965
    },
    {
        "icao": "EDBH",
        "iata": "N/A",
        "airport": "Barth",
        "city": "Barth",
        "country": "Germany",
        "altitude": 8.0,
        "latitude": 54.338,
        "longitude": 12.71
    },
    {
        "icao": "EDBJ",
        "iata": "N/A",
        "airport": "Jena Schongleina",
        "city": "Jena",
        "country": "Germany",
        "altitude": 38.0,
        "latitude": 50.917,
        "longitude": 11.714
    },
    {
        "icao": "EDBK",
        "iata": "N/A",
        "airport": "Kyritz",
        "city": "Kyritz",
        "country": "Germany",
        "altitude": 40.0,
        "latitude": 52.919,
        "longitude": 12.425
    },
    {
        "icao": "EDBM",
        "iata": "N/A",
        "airport": "Magdeburg",
        "city": "Magdeburg",
        "country": "Germany",
        "altitude": 82.0,
        "latitude": 52.074,
        "longitude": 11.626
    },
    {
        "icao": "EDBN",
        "iata": "N/A",
        "airport": "Brandis Waldpolenz",
        "city": "Neubrandenburg",
        "country": "Germany",
        "altitude": 164.0,
        "latitude": 51.328,
        "longitude": 12.657
    },
    {
        "icao": "EDBR",
        "iata": "N/A",
        "airport": "Rothenburg Gorlitz",
        "city": "Rothenburg/Ol",
        "country": "Germany",
        "altitude": 158.0,
        "latitude": 51.364,
        "longitude": 14.952
    },
    {
        "icao": "EDCA",
        "iata": "N/A",
        "airport": "Anklam",
        "city": "Anklam",
        "country": "Germany",
        "altitude": 6.0,
        "latitude": 53.833,
        "longitude": 13.669
    },
    {
        "icao": "EDCD",
        "iata": "N/A",
        "airport": "Cottbus Drewitz",
        "city": "Cottbus",
        "country": "Germany",
        "altitude": 84.0,
        "latitude": 51.889,
        "longitude": 14.532
    },
    {
        "icao": "EDCK",
        "iata": "N/A",
        "airport": "Kothen",
        "city": "Koethen",
        "country": "Germany",
        "altitude": 93.0,
        "latitude": 51.721,
        "longitude": 11.962
    },
    {
        "icao": "EDCM",
        "iata": "N/A",
        "airport": "Kamenz",
        "city": "Kamenz",
        "country": "Germany",
        "altitude": 151.0,
        "latitude": 51.296,
        "longitude": 14.129
    },
    {
        "icao": "EDDB",
        "iata": "SXF",
        "airport": "Schonefeld",
        "city": "Berlin",
        "country": "Germany",
        "altitude": 48.0,
        "latitude": 52.38,
        "longitude": 13.523
    },
    {
        "icao": "EDDC",
        "iata": "DRS",
        "airport": "Dresden",
        "city": "Dresden",
        "country": "Germany",
        "altitude": 231.0,
        "latitude": 51.133,
        "longitude": 13.767
    },
    {
        "icao": "EDDE",
        "iata": "ERF",
        "airport": "Erfurt",
        "city": "Erfurt",
        "country": "Germany",
        "altitude": 316.0,
        "latitude": 50.98,
        "longitude": 10.958
    },
    {
        "icao": "EDDF",
        "iata": "FRA",
        "airport": "Frankfurt Main",
        "city": "Frankfurt",
        "country": "Germany",
        "altitude": 111.0,
        "latitude": 50.026,
        "longitude": 8.543
    },
    {
        "icao": "EDDG",
        "iata": "FMO",
        "airport": "Munster Osnabruck",
        "city": "Muenster/Osnabrueck",
        "country": "Germany",
        "altitude": 49.0,
        "latitude": 52.134,
        "longitude": 7.685
    },
    {
        "icao": "EDDH",
        "iata": "HAM",
        "airport": "Hamburg",
        "city": "Hamburg",
        "country": "Germany",
        "altitude": 17.0,
        "latitude": 53.63,
        "longitude": 9.988
    },
    {
        "icao": "EDDI",
        "iata": "THF",
        "airport": "Tempelhof",
        "city": "Berlin",
        "country": "Germany",
        "altitude": 50.0,
        "latitude": 52.473,
        "longitude": 13.404
    },
    {
        "icao": "EDDK",
        "iata": "CGN",
        "airport": "Koln Bonn",
        "city": "Cologne",
        "country": "Germany",
        "altitude": 93.0,
        "latitude": 50.866,
        "longitude": 7.143
    },
    {
        "icao": "EDDL",
        "iata": "DUS",
        "airport": "Dusseldorf",
        "city": "Duesseldorf",
        "country": "Germany",
        "altitude": 45.0,
        "latitude": 51.289,
        "longitude": 6.767
    },
    {
        "icao": "EDDM",
        "iata": "MUC",
        "airport": "Munich",
        "city": "Munich",
        "country": "Germany",
        "altitude": 454.0,
        "latitude": 48.354,
        "longitude": 11.786
    },
    {
        "icao": "EDDN",
        "iata": "NUE",
        "airport": "Nurnberg",
        "city": "Nuernberg",
        "country": "Germany",
        "altitude": 319.0,
        "latitude": 49.499,
        "longitude": 11.078
    },
    {
        "icao": "EDDP",
        "iata": "LEJ",
        "airport": "Leipzig Halle",
        "city": "Leipzig",
        "country": "Germany",
        "altitude": 142.0,
        "latitude": 51.424,
        "longitude": 12.236
    },
    {
        "icao": "EDDR",
        "iata": "SCN",
        "airport": "Saarbrucken",
        "city": "Saarbruecken",
        "country": "Germany",
        "altitude": 323.0,
        "latitude": 49.214,
        "longitude": 7.109
    },
    {
        "icao": "EDDS",
        "iata": "STR",
        "airport": "Stuttgart",
        "city": "Stuttgart",
        "country": "Germany",
        "altitude": 389.0,
        "latitude": 48.69,
        "longitude": 9.222
    },
    {
        "icao": "EDDT",
        "iata": "TXL",
        "airport": "Tegel",
        "city": "Berlin",
        "country": "Germany",
        "altitude": 38.0,
        "latitude": 52.559,
        "longitude": 13.287
    },
    {
        "icao": "EDDV",
        "iata": "HAJ",
        "airport": "Hannover",
        "city": "Hannover",
        "country": "Germany",
        "altitude": 56.0,
        "latitude": 52.461,
        "longitude": 9.685
    },
    {
        "icao": "EDDW",
        "iata": "BRE",
        "airport": "Bremen",
        "city": "Bremen",
        "country": "Germany",
        "altitude": 5.0,
        "latitude": 53.047,
        "longitude": 8.787
    },
    {
        "icao": "EDFE",
        "iata": "N/A",
        "airport": "Egelsbach",
        "city": "Egelsbach",
        "country": "Germany",
        "altitude": 118.0,
        "latitude": 49.961,
        "longitude": 8.644
    },
    {
        "icao": "EDFH",
        "iata": "HHN",
        "airport": "Frankfurt Hahn",
        "city": "Hahn",
        "country": "Germany",
        "altitude": 503.0,
        "latitude": 49.95,
        "longitude": 7.264
    },
    {
        "icao": "EDFM",
        "iata": "MHG",
        "airport": "Mannheim City",
        "city": "Mannheim",
        "country": "Germany",
        "altitude": 95.0,
        "latitude": 49.473,
        "longitude": 8.514
    },
    {
        "icao": "EDFQ",
        "iata": "N/A",
        "airport": "Allendorf Eder",
        "city": "Allendorf",
        "country": "Germany",
        "altitude": 356.0,
        "latitude": 51.035,
        "longitude": 8.679
    },
    {
        "icao": "EDFV",
        "iata": "N/A",
        "airport": "Worms",
        "city": "Worms",
        "country": "Germany",
        "altitude": 90.0,
        "latitude": 49.606,
        "longitude": 8.368
    },
    {
        "icao": "EDFZ",
        "iata": "N/A",
        "airport": "Mainz Finthen",
        "city": "Mainz",
        "country": "Germany",
        "altitude": 232.0,
        "latitude": 49.969,
        "longitude": 8.147
    },
    {
        "icao": "EDGE",
        "iata": "N/A",
        "airport": "Eisenach Kindel",
        "city": "Eisenach",
        "country": "Germany",
        "altitude": 336.0,
        "latitude": 50.993,
        "longitude": 10.473
    },
    {
        "icao": "EDGS",
        "iata": "N/A",
        "airport": "Siegerland",
        "city": "Siegerland",
        "country": "Germany",
        "altitude": 600.0,
        "latitude": 50.708,
        "longitude": 8.082
    },
    {
        "icao": "EDHI",
        "iata": "XFW",
        "airport": "Hamburg Finkenwerder",
        "city": "Hamburg",
        "country": "Germany",
        "altitude": 6.0,
        "latitude": 53.535,
        "longitude": 9.835
    },
    {
        "icao": "EDHK",
        "iata": "KEL",
        "airport": "Kiel Holtenau",
        "city": "Kiel",
        "country": "Germany",
        "altitude": 31.0,
        "latitude": 54.379,
        "longitude": 10.145
    },
    {
        "icao": "EDHL",
        "iata": "LBC",
        "airport": "Lubeck Blankensee",
        "city": "Luebeck",
        "country": "Germany",
        "altitude": 17.0,
        "latitude": 53.805,
        "longitude": 10.719
    },
    {
        "icao": "EDKA",
        "iata": "AAH",
        "airport": "Aachen Merzbruck",
        "city": "Aachen",
        "country": "Germany",
        "altitude": 190.0,
        "latitude": 50.823,
        "longitude": 6.187
    },
    {
        "icao": "EDKV",
        "iata": "N/A",
        "airport": "Dahlemer Binz",
        "city": "Dahlemer Binz",
        "country": "Germany",
        "altitude": 578.0,
        "latitude": 50.406,
        "longitude": 6.528
    },
    {
        "icao": "EDKZ",
        "iata": "N/A",
        "airport": "Meinerzhagen",
        "city": "Meinerzhagen",
        "country": "Germany",
        "altitude": 472.0,
        "latitude": 51.099,
        "longitude": 7.602
    },
    {
        "icao": "EDLA",
        "iata": "ZCA",
        "airport": "Arnsberg Menden",
        "city": "Arnsberg",
        "country": "Germany",
        "altitude": 243.0,
        "latitude": 51.483,
        "longitude": 7.899
    },
    {
        "icao": "EDLC",
        "iata": "N/A",
        "airport": "Kamp Lintfort",
        "city": "Kamp",
        "country": "Germany",
        "altitude": 3.0,
        "latitude": 51.53,
        "longitude": 6.537
    },
    {
        "icao": "EDLE",
        "iata": "ESS",
        "airport": "Essen Mulheim",
        "city": "Essen",
        "country": "Germany",
        "altitude": 130.0,
        "latitude": 51.401,
        "longitude": 6.936
    },
    {
        "icao": "EDLN",
        "iata": "MGL",
        "airport": "Monchengladbach",
        "city": "Moenchengladbach",
        "country": "Germany",
        "altitude": 39.0,
        "latitude": 51.23,
        "longitude": 6.504
    },
    {
        "icao": "EDLP",
        "iata": "PAD",
        "airport": "Paderborn Lippstadt",
        "city": "Paderborn",
        "country": "Germany",
        "altitude": 214.0,
        "latitude": 51.614,
        "longitude": 8.616
    },
    {
        "icao": "EDLS",
        "iata": "N/A",
        "airport": "Stadtlohn Vreden",
        "city": "Stadtlohn",
        "country": "Germany",
        "altitude": 48.0,
        "latitude": 51.996,
        "longitude": 6.84
    },
    {
        "icao": "EDLW",
        "iata": "DTM",
        "airport": "Dortmund",
        "city": "Dortmund",
        "country": "Germany",
        "altitude": 130.0,
        "latitude": 51.518,
        "longitude": 7.612
    },
    {
        "icao": "EDMA",
        "iata": "AGB",
        "airport": "Augsburg",
        "city": "Augsburg",
        "country": "Germany",
        "altitude": 462.0,
        "latitude": 48.425,
        "longitude": 10.932
    },
    {
        "icao": "EDMB",
        "iata": "N/A",
        "airport": "Biberach An Der Riss",
        "city": "Biberach",
        "country": "Germany",
        "altitude": 581.0,
        "latitude": 48.111,
        "longitude": 9.763
    },
    {
        "icao": "EDME",
        "iata": "N/A",
        "airport": "Eggenfelden",
        "city": "Eggenfelden",
        "country": "Germany",
        "altitude": 410.0,
        "latitude": 48.396,
        "longitude": 12.724
    },
    {
        "icao": "EDMO",
        "iata": "OBF",
        "airport": "Oberpfaffenhofen",
        "city": "Oberpfaffenhofen",
        "country": "Germany",
        "altitude": 594.0,
        "latitude": 48.081,
        "longitude": 11.283
    },
    {
        "icao": "EDMS",
        "iata": "N/A",
        "airport": "Straubing",
        "city": "Straubing",
        "country": "Germany",
        "altitude": 322.0,
        "latitude": 48.901,
        "longitude": 12.518
    },
    {
        "icao": "EDMV",
        "iata": "N/A",
        "airport": "Vilshofen",
        "city": "Vilshofen",
        "country": "Germany",
        "altitude": 303.0,
        "latitude": 48.636,
        "longitude": 13.195
    },
    {
        "icao": "EDNL",
        "iata": "N/A",
        "airport": "Leutkirch Unterzeil",
        "city": "Leutkirch",
        "country": "Germany",
        "altitude": 640.0,
        "latitude": 47.859,
        "longitude": 10.014
    },
    {
        "icao": "EDNY",
        "iata": "FDH",
        "airport": "Friedrichshafen",
        "city": "Friedrichshafen",
        "country": "Germany",
        "altitude": 417.0,
        "latitude": 47.671,
        "longitude": 9.511
    },
    {
        "icao": "EDOP",
        "iata": "SZW",
        "airport": "Schwerin Parchim",
        "city": "Parchim",
        "country": "Germany",
        "altitude": 51.0,
        "latitude": 53.427,
        "longitude": 11.783
    },
    {
        "icao": "EDOV",
        "iata": "N/A",
        "airport": "Stendal Borstel",
        "city": "Stendal",
        "country": "Germany",
        "altitude": 57.0,
        "latitude": 52.629,
        "longitude": 11.82
    },
    {
        "icao": "EDPA",
        "iata": "N/A",
        "airport": "Aalen Heidenheim Elchingen",
        "city": "Aalen-Heidenheim",
        "country": "Germany",
        "altitude": 584.0,
        "latitude": 48.778,
        "longitude": 10.264
    },
    {
        "icao": "EDQC",
        "iata": "N/A",
        "airport": "Coburg Brandensteinsebene",
        "city": "Coburg",
        "country": "Germany",
        "altitude": 455.0,
        "latitude": 50.263,
        "longitude": 10.996
    },
    {
        "icao": "EDQD",
        "iata": "BYU",
        "airport": "Bayreuth",
        "city": "Bayreuth",
        "country": "Germany",
        "altitude": 488.0,
        "latitude": 49.984,
        "longitude": 11.638
    },
    {
        "icao": "EDQE",
        "iata": "N/A",
        "airport": "Burg Feuerstein",
        "city": "Burg Feuerstein",
        "country": "Germany",
        "altitude": 511.0,
        "latitude": 49.794,
        "longitude": 11.132
    },
    {
        "icao": "EDQM",
        "iata": "HOQ",
        "airport": "Hof Plauen",
        "city": "Hof",
        "country": "Germany",
        "altitude": 597.0,
        "latitude": 50.289,
        "longitude": 11.855
    },
    {
        "icao": "EDQP",
        "iata": "N/A",
        "airport": "Rosenthal Field Plossen",
        "city": "Rosenthal",
        "country": "Germany",
        "altitude": 456.0,
        "latitude": 49.863,
        "longitude": 11.788
    },
    {
        "icao": "EDQT",
        "iata": "N/A",
        "airport": "Hassfurt Schweinfurt",
        "city": "Hassfurt",
        "country": "Germany",
        "altitude": 219.0,
        "latitude": 50.018,
        "longitude": 10.529
    },
    {
        "icao": "EDRK",
        "iata": "ZNV",
        "airport": "Koblenz Winningen",
        "city": "Koblenz",
        "country": "Germany",
        "altitude": 196.0,
        "latitude": 50.325,
        "longitude": 7.531
    },
    {
        "icao": "EDRT",
        "iata": "ZQF",
        "airport": "Trier Fohren",
        "city": "Trier",
        "country": "Germany",
        "altitude": 203.0,
        "latitude": 49.863,
        "longitude": 6.789
    },
    {
        "icao": "EDRY",
        "iata": "ZQC",
        "airport": "Speyer",
        "city": "Speyer",
        "country": "Germany",
        "altitude": 96.0,
        "latitude": 49.302,
        "longitude": 8.451
    },
    {
        "icao": "EDRZ",
        "iata": "N/A",
        "airport": "Zweibrucken",
        "city": "Zweibruecken",
        "country": "Germany",
        "altitude": 346.0,
        "latitude": 49.209,
        "longitude": 7.401
    },
    {
        "icao": "EDTB",
        "iata": "ZCC",
        "airport": "Baden Oos",
        "city": "Baden-Baden",
        "country": "Germany",
        "altitude": 124.0,
        "latitude": 48.791,
        "longitude": 8.187
    },
    {
        "icao": "EDTD",
        "iata": "ZQL",
        "airport": "Donaueschingen Villingen",
        "city": "Donaueschingen",
        "country": "Germany",
        "altitude": 681.0,
        "latitude": 47.973,
        "longitude": 8.522
    },
    {
        "icao": "EDTF",
        "iata": "N/A",
        "airport": "Freiburg",
        "city": "Freiburg",
        "country": "Germany",
        "altitude": 244.0,
        "latitude": 48.02,
        "longitude": 7.834
    },
    {
        "icao": "EDTK",
        "iata": "N/A",
        "airport": "Karlsruhe Forchheim",
        "city": "Karlsruhe",
        "country": "Germany",
        "altitude": 116.0,
        "latitude": 48.982,
        "longitude": 8.333
    },
    {
        "icao": "EDTM",
        "iata": "N/A",
        "airport": "Mengen Hohentengen",
        "city": "Mengen",
        "country": "Germany",
        "altitude": 555.0,
        "latitude": 48.054,
        "longitude": 9.373
    },
    {
        "icao": "EDTY",
        "iata": "N/A",
        "airport": "Schwabisch Hall Hessental",
        "city": "Schwaebisch Hall",
        "country": "Germany",
        "altitude": 400.0,
        "latitude": 49.118,
        "longitude": 9.777
    },
    {
        "icao": "EDUS",
        "iata": "N/A",
        "airport": "Finsterwalde Schacksdorf",
        "city": "Soest",
        "country": "Germany",
        "altitude": 122.0,
        "latitude": 51.608,
        "longitude": 13.738
    },
    {
        "icao": "EDVE",
        "iata": "BWE",
        "airport": "Braunschweig",
        "city": "Braunschweig",
        "country": "Germany",
        "altitude": 91.0,
        "latitude": 52.319,
        "longitude": 10.556
    },
    {
        "icao": "EDVK",
        "iata": "KSF",
        "airport": "Kassel Calden",
        "city": "Kassel",
        "country": "Germany",
        "altitude": 277.0,
        "latitude": 51.408,
        "longitude": 9.378
    },
    {
        "icao": "EDVM",
        "iata": "N/A",
        "airport": "Hildesheim",
        "city": "Hildesheim",
        "country": "Germany",
        "altitude": 90.0,
        "latitude": 52.177,
        "longitude": 9.946
    },
    {
        "icao": "EDWB",
        "iata": "BRV",
        "airport": "Bremerhaven",
        "city": "Bremerhaven",
        "country": "Germany",
        "altitude": 4.0,
        "latitude": 53.503,
        "longitude": 8.573
    },
    {
        "icao": "EDWD",
        "iata": "LEM",
        "airport": "Lemwerder",
        "city": "Lemwerder",
        "country": "Germany",
        "altitude": 7.0,
        "latitude": 53.143,
        "longitude": 8.623
    },
    {
        "icao": "EDWE",
        "iata": "EME",
        "airport": "Emden",
        "city": "Emden",
        "country": "Germany",
        "altitude": 1.0,
        "latitude": 53.391,
        "longitude": 7.227
    },
    {
        "icao": "EDWF",
        "iata": "N/A",
        "airport": "Leer Papenburg",
        "city": "Leer",
        "country": "Germany",
        "altitude": 1.0,
        "latitude": 53.272,
        "longitude": 7.443
    },
    {
        "icao": "EDWI",
        "iata": "WVN",
        "airport": "Wilhelmshaven Mariensiel",
        "city": "Wilhelmshaven",
        "country": "Germany",
        "altitude": 5.0,
        "latitude": 53.505,
        "longitude": 8.053
    },
    {
        "icao": "EDWR",
        "iata": "BMK",
        "airport": "Borkum",
        "city": "Borkum",
        "country": "Germany",
        "altitude": 1.0,
        "latitude": 53.595,
        "longitude": 6.709
    },